[
  {
    "name": "lacha somutm",
    "type": "thai",
    "rating": 4,
    "price": 1,
    "address": "5171 hollywood blvd",
    "zipCode": 90027,
    "note": "isaan sausage",
    "latitude": 34.102079999658656,
    "longitude": -118.30287954524144
  },
  {
    "name": "taron bakery",
    "type": "armenian",
    "rating": 4,
    "price": 1,
    "address": "4950 hollywood blvd",
    "zipCode": 90027,
    "note": "armenian bakery",
    "latitude": 34.10306436135933,
    "longitude": -118.29757968460632
  },
  {
    "name": "chuan chim thai cafe",
    "type": "thai",
    "rating": 4,
    "price": 1,
    "address": "5644 hollywood blvd",
    "zipCode": 90028,
    "note": "",
    "latitude": 34.10168703621626,
    "longitude": -118.31304163174993
  },
  {
    "name": "natalie peruvian seafood restaurant",
    "type": "seafood",
    "rating": 4,
    "price": 1,
    "address": "5759 hollywood blvd",
    "zipCode": 90028,
    "note": "peruvian food",
    "latitude": 34.10240314410676,
    "longitude": -118.31511726497573
  },
  {
    "name": "siam sunset",
    "type": "thai",
    "rating": 4,
    "price": 1,
    "address": "5265 sunset blvd",
    "zipCode": 90027,
    "note": "thai breakfast donuts, chicken rice, congee, khanom jeen",
    "latitude": 34.09844935323779,
    "longitude": -118.30473171640554
  },
  {
    "name": "all time",
    "type": "breakfast",
    "rating": 4,
    "price": 1,
    "address": "2040 hillhurst ave",
    "zipCode": 90027,
    "note": "breakfast burrito",
    "latitude": 34.09844935323779,
    "longitude": -118.30473171640554
  },
  {
    "name": "la rose cafe",
    "type": "filipino",
    "rating": 4,
    "price": 1,
    "address": "4749 fountain ave",
    "zipCode": 90029,
    "note": "cebuchon, pinkabet",
    "latitude": 34.090845430329374,
    "longitude": -118.30796697407801
  },
  {
    "name": "tlayuda la restaurant",
    "type": "mexican",
    "rating": 4,
    "price": 1,
    "address": "5450 santa monica blvd",
    "zipCode": 90029,
    "note": "oaxacan",
    "latitude": 34.090845430329374,
    "longitude": -118.30796697407801
  },
  {
    "name": "dear bella creamery",
    "type": "ice cream",
    "rating": 4,
    "price": 1,
    "address": "1253 vine st #12",
    "zipCode": 90038,
    "note": "plant based",
    "latitude": 34.09436385236305,
    "longitude": -118.32779437407784
  },
  {
    "name": "musso & frank grill",
    "type": "american",
    "rating": 4,
    "price": 3,
    "address": "6667 hollywood blvd",
    "zipCode": 90028,
    "note": "strong drinks",
    "latitude": 34.101939166399724,
    "longitude": -118.33536101979057
  },
  {
    "name": "el churrasco chapin",
    "type": "guatemalan",
    "rating": 4,
    "price": 1,
    "address": "820 n western ave",
    "zipCode": 90029,
    "note": "",
    "latitude": 34.08550454322332,
    "longitude": -118.30858428571696
  },
  {
    "name": "le coupe",
    "type": "chicken",
    "rating": 4,
    "price": 1,
    "address": "709 n western ave",
    "zipCode": 90029,
    "note": "chicken dredged in chile honey, corn ribs, blue cornbread, watermelon salad",
    "latitude": 34.083983489421705,
    "longitude": -118.30937890291439
  },
  {
    "name": "luv2eat thai bistro",
    "type": "thai",
    "rating": 4,
    "price": 2,
    "address": "6660 sunset blvd",
    "zipCode": 90028,
    "note": "crab curry, kua gling, hat yai fried chicken",
    "latitude": 34.0979383975643,
    "longitude": -118.33593830291382
  },
  {
    "name": "ramen tatsunoya",
    "type": "ramen",
    "rating": 4,
    "price": 1,
    "address": "3440 sunset blvd",
    "zipCode": 90026,
    "note": "",
    "latitude": 34.09026280123649,
    "longitude": -118.27693909052655
  },
  {
    "name": "wow choripan",
    "type": "argentinian",
    "rating": 4,
    "price": 1,
    "address": "375 n western ave",
    "zipCode": 90004,
    "note": "",
    "latitude": 34.07815827451928,
    "longitude": -118.3093238164063
  },
  {
    "name": "all day baby",
    "type": "breakfast",
    "rating": 4,
    "price": 1,
    "address": "3200 sunset blvd",
    "zipCode": 90026,
    "note": "breakfast burrito, biscuit sandwich",
    "latitude": 34.08561991468537,
    "longitude": -118.27510180291428
  },
  {
    "name": "saikai ramen bar",
    "type": "ramen",
    "rating": 4,
    "price": 2,
    "address": "209 n western ave #b",
    "zipCode": 90004,
    "note": "ramen. sandwiches",
    "latitude": 34.075233768014215,
    "longitude": -118.30962890291471
  },
  {
    "name": "astro family restaurant",
    "type": "diner",
    "rating": 4,
    "price": 1,
    "address": "2300 fletcher dr",
    "zipCode": 90039,
    "note": "old school fam diner. veal parmesan, pastitsio",
    "latitude": 34.10461336049998,
    "longitude": -118.25858440259259
  },
  {
    "name": "bodega park",
    "type": "sandwich",
    "rating": 4,
    "price": 1,
    "address": "2852 sunset blvd",
    "zipCode": 90026,
    "note": "chopped cheese",
    "latitude": 34.08271322017701,
    "longitude": -118.2731919298977
  },
  {
    "name": "farina pizza",
    "type": "pizza",
    "rating": 4,
    "price": 1,
    "address": "119 s western ave",
    "zipCode": 90004,
    "note": "",
    "latitude": 34.07515293379964,
    "longitude": -118.30913427761607
  },
  {
    "name": "oui melrose",
    "type": "american",
    "rating": 4,
    "price": 1,
    "address": "6909 melrose ave",
    "zipCode": 90038,
    "note": "random stuff on menu, sandwiches, mediterranean, american food",
    "latitude": 34.08389984796307,
    "longitude": -118.34197796058673
  },
  {
    "name": "barn cafe and restaurant",
    "type": "korean",
    "rating": 4,
    "price": 1,
    "address": "228 s oxford ave",
    "zipCode": 90004,
    "note": "cafe in day and bar during nite, korean anju",
    "latitude": 34.07121966376696,
    "longitude": -118.30771814802078
  },
  {
    "name": "all angolo pizza and pasta",
    "type": "pizza",
    "rating": 4,
    "price": 1,
    "address": "4050 w 3rd st",
    "zipCode": 90020,
    "note": "",
    "latitude": 34.0689261643917,
    "longitude": -118.30191329096216
  },
  {
    "name": "mini kabob",
    "type": "armenian",
    "rating": 4,
    "price": 2,
    "address": "313 1/2 vine st",
    "zipCode": 91204,
    "note": "",
    "latitude": 34.141116569403124,
    "longitude": -118.25855961640411
  },
  {
    "name": "dollar hits",
    "type": "filipino",
    "rating": 4,
    "price": 1,
    "address": "2432 w temple st",
    "zipCode": 90026,
    "note": "",
    "latitude": 34.07163272822482,
    "longitude": -118.27292850291475
  },
  {
    "name": "mensch bakery",
    "type": "bakery",
    "rating": 4,
    "price": 2,
    "address": "7122 beverly blvd",
    "zipCode": 90036,
    "note": "jewish bakery",
    "latitude": 34.07618220579587,
    "longitude": -118.344944889423
  },
  {
    "name": "foxys restaurant",
    "type": "american",
    "rating": 4,
    "price": 1,
    "address": "206 w colorado st",
    "zipCode": 91204,
    "note": "brunch, chile relleno omelets, huevos machaca, chilaquiles, tri tip barbacoa with eggs",
    "latitude": 34.14244891761967,
    "longitude": -118.2567286621088
  },
  {
    "name": "kubo restaurant",
    "type": "filipino",
    "rating": 4,
    "price": 1,
    "address": "2330 w temple st",
    "zipCode": 90026,
    "note": "",
    "latitude": 34.071477802804274,
    "longitude": -118.27170610476772
  },
  {
    "name": "yakis the original teriyaki",
    "type": "burgers",
    "rating": 4,
    "price": 1,
    "address": "904 w alameda ave",
    "zipCode": 91506,
    "note": "burgers and japanese food",
    "latitude": 34.16648776680989,
    "longitude": -118.31175080969645
  },
  {
    "name": "maxs restaurant",
    "type": "filipino",
    "rating": 4,
    "price": 2,
    "address": "313 w broadway",
    "zipCode": 91204,
    "note": "sisig",
    "latitude": 34.147169223210625,
    "longitude": -118.25879060661791
  },
  {
    "name": "bea beas",
    "type": "breakfast",
    "rating": 4,
    "price": 1,
    "address": "301 n central ave",
    "zipCode": 91203,
    "note": "breakfast, pancakes, green tea pancakes",
    "latitude": 34.15415881077139,
    "longitude": -118.25846948768196
  },
  {
    "name": "monta factory",
    "type": "armenian",
    "rating": 4,
    "price": 1,
    "address": "1208 w glenoaks blvd",
    "zipCode": 91201,
    "note": "armenian dumplings",
    "latitude": 34.16523571868338,
    "longitude": -118.28186538756717
  },
  {
    "name": "sasoun bakery",
    "type": "bakery",
    "rating": 4,
    "price": 1,
    "address": "625 e colorado st",
    "zipCode": 91205,
    "note": "",
    "latitude": 34.14495585339125,
    "longitude": -118.24749038091736
  },
  {
    "name": "nerssess vanak restaurant",
    "type": "persian",
    "rating": 4,
    "price": 2,
    "address": "6524 san fernando rd",
    "zipCode": 91201,
    "note": "dial - iranian lamb stew, abghost, lavash",
    "latitude": 34.16847663491929,
    "longitude": -118.29067043174766
  },
  {
    "name": "cofax",
    "type": "cafe",
    "rating": 4,
    "price": 1,
    "address": "440 n fairfax ave",
    "zipCode": 90036,
    "note": "fancier breakfast burritos",
    "latitude": 34.079522685076476,
    "longitude": -118.36122348757014
  },
  {
    "name": "little ongpin",
    "type": "filipino",
    "rating": 3,
    "price": 1,
    "address": "1700 beverly blvd",
    "zipCode": 90026,
    "note": "turons, soups, miki bihon",
    "latitude": 34.066958548652096,
    "longitude": -118.26599508511705
  },
  {
    "name": "button mash",
    "type": "tacos",
    "rating": 4,
    "price": 2,
    "address": "1391 sunset blvd",
    "zipCode": 90026,
    "note": "",
    "latitude": 34.07429218344426,
    "longitude": -118.25159528757035
  },
  {
    "name": "corner cottage",
    "type": "breakfast",
    "rating": 4,
    "price": 1,
    "address": "310 s victory blvd",
    "zipCode": 91502,
    "note": "burritos, salsa",
    "latitude": 34.170975136666144,
    "longitude": -118.3149051029114
  },
  {
    "name": "guelaguetza restaurant",
    "type": "mexican",
    "rating": 4,
    "price": 2,
    "address": "3014 w olympic blvd",
    "zipCode": 90006,
    "note": "mole negro",
    "latitude": 34.05255848800595,
    "longitude": -118.30066810291555
  },
  {
    "name": "carribean soul kitchen la",
    "type": "caribbean",
    "rating": 4,
    "price": 2,
    "address": "5354 wilshire blvd",
    "zipCode": 90036,
    "note": "carribean and panamanian food, fresh drinks, fried whole snapper, patacon - fried plantain and fried yuca, sancochio - rice corn chicken yuca soup, yuca ball",
    "latitude": 34.06232537536023,
    "longitude": -118.34558384709574
  },
  {
    "name": "met her at a bar",
    "type": "cafe",
    "rating": 4,
    "price": 1,
    "address": "759 s la brea",
    "zipCode": 90036,
    "note": "unique waffle choices, khai jia (thai omelette), normal brunch fair",
    "latitude": 34.06082422627468,
    "longitude": -118.34480104524289
  },
  {
    "name": "the parks finest",
    "type": "filipino",
    "rating": 4,
    "price": 2,
    "address": "1267 w temple st",
    "zipCode": 90026,
    "note": "mama leahs coconut beef, cornbread bibingka",
    "latitude": 34.06662965661503,
    "longitude": -118.25399757561821
  },
  {
    "name": "valerie confections",
    "type": "cafe",
    "rating": 4,
    "price": 3,
    "address": "1936 w glenoaks blvd",
    "zipCode": 91201,
    "note": "",
    "latitude": 34.17474947495606,
    "longitude": -118.29511776058334
  },
  {
    "name": "lutong bahay restaurant",
    "type": "filipino",
    "rating": 4,
    "price": 1,
    "address": "3756 w ave 40",
    "zipCode": 90065,
    "note": "kare kare and caldereta",
    "latitude": 34.11970218612334,
    "longitude": -118.22790663174926
  },
  {
    "name": "auntie dees pan de manila",
    "type": "bakery",
    "rating": 4,
    "price": 1,
    "address": "3756 w ave 40 #1g",
    "zipCode": 90065,
    "note": "ensaimadas",
    "latitude": 34.11989919604753,
    "longitude": -118.22738327407708
  },
  {
    "name": "irvs burgers",
    "type": "hamburger",
    "rating": 4,
    "price": 1,
    "address": "1000 s la brea ave",
    "zipCode": 90019,
    "note": "",
    "latitude": 34.063866093653786,
    "longitude": -118.34557839919225
  },
  {
    "name": "kusina filipina los angeles",
    "type": "filipino",
    "rating": 4,
    "price": 2,
    "address": "4157 eagle rock blvd",
    "zipCode": 90065,
    "note": "sisig milkfish",
    "latitude": 34.122369503111685,
    "longitude": -118.22583091978578
  },
  {
    "name": "la cevicheria",
    "type": "seafood",
    "rating": 4,
    "price": 2,
    "address": "3809 w pico blvd",
    "zipCode": 90019,
    "note": "ceviche, concha negra",
    "latitude": 34.04781553416221,
    "longitude": -118.32278451640728
  },
  {
    "name": "yang chow",
    "type": "chinese",
    "rating": 4,
    "price": 2,
    "address": "819 n broadway",
    "zipCode": 90012,
    "note": "slippery shrimp",
    "latitude": 34.0659025657863,
    "longitude": -118.23818286293368
  },
  {
    "name": "borekas sephardic pastries",
    "type": "bakery",
    "rating": 4,
    "price": 1,
    "address": "15030 ventura blvd #25",
    "zipCode": 91403,
    "note": "israeli pastries - borekas",
    "latitude": 34.15283691122923,
    "longitude": -118.46116910628699
  },
  {
    "name": "domingos italian deli",
    "type": "deli",
    "rating": 4,
    "price": 2,
    "address": "17548 ventura blvd",
    "zipCode": 91316,
    "note": "",
    "latitude": 34.16175833661901,
    "longitude": -118.51575228756727
  },
  {
    "name": "maxs restaurant",
    "type": "filipino",
    "rating": 4,
    "price": 2,
    "address": "313 w broadway",
    "zipCode": 91204,
    "note": "sisig",
    "latitude": 34.1471958607119,
    "longitude": -118.25872623360121
  },
  {
    "name": "ini ristorante",
    "type": "japanese",
    "rating": 4,
    "price": 3,
    "address": "16129 brookhurst st",
    "zipCode": 92708,
    "note": "japanese italian fusion",
    "latitude": 33.72844700935692,
    "longitude": -117.95512317594346
  },
  {
    "name": "springbok bar & grill",
    "type": "south african",
    "rating": 4,
    "price": 2,
    "address": "16153 victory blvd",
    "zipCode": 91406,
    "note": "",
    "latitude": 34.18707767837341,
    "longitude": -118.48572491977056
  },
  {
    "name": "nillys burgers",
    "type": "hamburger",
    "rating": 4,
    "price": 1,
    "address": "17603 pioneer blvd",
    "zipCode": 90701,
    "note": "",
    "latitude": 33.87123473478507,
    "longitude": -118.08290982990506
  },
  {
    "name": "zam zam foods",
    "type": "pakistani",
    "rating": 4,
    "price": 1,
    "address": "13645/49 s inglewood ave",
    "zipCode": 90250,
    "note": "",
    "latitude": 33.908129745024794,
    "longitude": -118.36164473360934
  },
  {
    "name": "nikis halal grill & karahi",
    "type": "pakistani",
    "rating": 4,
    "price": 1,
    "address": "2031 e 1st st a3",
    "zipCode": 92705,
    "note": "karahi, also has indian food",
    "latitude": 33.74657150462479,
    "longitude": -117.83784209103732
  },
  {
    "name": "johnnys pastrami",
    "type": "sandwich",
    "rating": 4,
    "price": 2,
    "address": "4327 w adams blvd",
    "zipCode": 90007,
    "note": "pastrami reuben, johny fries, pastrami tacos",
    "latitude": 34.03297490525339,
    "longitude": -118.3329802182607
  },
  {
    "name": "tacos virgina",
    "type": "mexican",
    "rating": 4,
    "price": 1,
    "address": "4081 whittier blvd",
    "zipCode": 90023,
    "note": "menudo, birria de chivo",
    "latitude": 34.02419314647025,
    "longitude": -118.1834926894249
  },
  {
    "name": "the independence",
    "type": "pub",
    "rating": 4,
    "price": 2,
    "address": "205 broadway",
    "zipCode": 90401,
    "note": "coconut french toast, fried egg sandwich, endless mimosas, great bloodies",
    "latitude": 34.01395628078229,
    "longitude": -118.49551767748335
  },
  {
    "name": "lucys restaurant & bakery",
    "type": "mexican",
    "rating": 4,
    "price": 2,
    "address": "1330 w washington blvd",
    "zipCode": 90007,
    "note": "",
    "latitude": 34.039961648719284,
    "longitude": -118.28495753175216
  },
  {
    "name": "sau can tho vietnamese kitchen",
    "type": "vietnamese",
    "rating": 4,
    "price": 2,
    "address": "8450 garvey ave #103",
    "zipCode": 91770,
    "note": "",
    "latitude": 34.062570865134816,
    "longitude": -118.08460243514422
  },
  {
    "name": "nates korner",
    "type": "deli",
    "rating": 4,
    "price": 1,
    "address": "3960 s main st d",
    "zipCode": 92707,
    "note": "",
    "latitude": 33.69478995405597,
    "longitude": -117.86869064686891
  },
  {
    "name": "jugos azteca",
    "type": "mexican",
    "rating": 4,
    "price": 1,
    "address": "5213 york blvd",
    "zipCode": 90042,
    "note": "chorizo breakfast burrito",
    "latitude": 34.120867369048774,
    "longitude": -118.2023203081472
  },
  {
    "name": "tendon tempura carlos jr",
    "type": "japanese",
    "rating": 4,
    "price": 2,
    "address": "1510 cabrillo ave",
    "zipCode": 90501,
    "note": "japanese peruvian food. tempura",
    "latitude": 33.83359645633675,
    "longitude": -118.31414014683664
  },
  {
    "name": "qt golden marketplace",
    "type": "food court",
    "rating": 3,
    "price": 2,
    "address": "9772 garden grove blvd",
    "zipCode": 92844,
    "note": "big baked fish",
    "latitude": 33.77319835194322,
    "longitude": -117.96185306404782
  },
  {
    "name": "chronis famous sandwich shop",
    "type": "fast food",
    "rating": 4,
    "price": 2,
    "address": "5825 whittier blvd",
    "zipCode": 90022,
    "note": "",
    "latitude": 34.01819778734302,
    "longitude": -118.14528854864629
  },
  {
    "name": "golden deli san gabriel",
    "type": "vietnamese",
    "rating": 4,
    "price": 1,
    "address": "815 w las tunas dr",
    "zipCode": 91776,
    "note": "egg rolls - cha gio",
    "latitude": 34.102936558250065,
    "longitude": -118.11172713328186
  },
  {
    "name": "saigon flavor",
    "type": "vietnamese",
    "rating": 4,
    "price": 1,
    "address": "208 e valley blvd",
    "zipCode": 91776,
    "note": "egg rolls - cha gio",
    "latitude": 34.07984297010476,
    "longitude": -118.09754110445118
  },
  {
    "name": "two douglas pizza co",
    "type": "pizza",
    "rating": 4,
    "price": 2,
    "address": "28860 roadside dr",
    "zipCode": 91301,
    "note": "",
    "latitude": 34.14469799257187,
    "longitude": -118.75422363512496
  },
  {
    "name": "gemmae bake shop",
    "type": "bakery",
    "rating": 4,
    "price": 1,
    "address": "1356 w willow st",
    "zipCode": 90810,
    "note": "bakery with great lumpia",
    "latitude": 33.80425179045778,
    "longitude": -118.2102205198601
  },
  {
    "name": "taberu",
    "type": "japanese",
    "rating": 4,
    "price": 2,
    "address": "806 e 3rd st #140",
    "zipCode": 90013,
    "note": "japanese skewers, need reservations",
    "latitude": 34.04558983122324,
    "longitude": -118.23593101980383
  },
  {
    "name": "ponchos tlayudas",
    "type": "mexican",
    "rating": 4,
    "price": 1,
    "address": "4318 s main st",
    "zipCode": 90037,
    "note": "",
    "latitude": 34.005288503064484,
    "longitude": -118.2737829793382
  },
  {
    "name": "brents deli northridge",
    "type": "deli",
    "rating": 4,
    "price": 2,
    "address": "19565 parthenia st",
    "zipCode": 91324,
    "note": "black pastrami reuben, chicken matzo ball soup, cheese blitnzes and chopped liver, new pickles",
    "latitude": 34.229049273815086,
    "longitude": -118.56039374674397
  },
  {
    "name": "fat + flour",
    "type": "bakery",
    "rating": 3,
    "price": 1,
    "address": "317 s broadway",
    "zipCode": 90013,
    "note": "",
    "latitude": 34.050775454067086,
    "longitude": -118.24868791980253
  },
  {
    "name": "all season brewing company",
    "type": "brewery",
    "rating": 4,
    "price": 2,
    "address": "800 s la brea ave",
    "zipCode": 90036,
    "note": "",
    "latitude": 34.060425128177265,
    "longitude": -118.34455003148021
  },
  {
    "name": "carniats los dos chingones",
    "type": "mexican",
    "rating": 4,
    "price": 1,
    "address": "1365 s dacotah st",
    "zipCode": 90023,
    "note": "chilaquiles, breakfast burrito",
    "latitude": 34.02120024433012,
    "longitude": -118.21216446032366
  },
  {
    "name": "friends and family",
    "type": "bakery",
    "rating": 4,
    "price": 2,
    "address": "5150 hollywood blvd",
    "zipCode": 90027,
    "note": "bakery, breakfast and brunch, american food",
    "latitude": 34.10180220252458,
    "longitude": -118.30236393147159
  },
  {
    "name": "lucky boy",
    "type": "fast food",
    "rating": 4,
    "price": 1,
    "address": "640 s arroyo pkwy",
    "zipCode": 91105,
    "note": "pastrami fries",
    "latitude": 34.13479465242636,
    "longitude": -118.14699154495858
  },
  {
    "name": "cold spring tavern",
    "type": "american",
    "rating": 4,
    "price": 2,
    "address": "5995 stagecoach rd",
    "zipCode": 93105,
    "note": "tri tip sandwich, venison steak, rabbit chili, onion rings",
    "latitude": 34.52161685629814,
    "longitude": -119.8405361025479
  },
  {
    "name": "el parian restaurant",
    "type": "mexican",
    "rating": 4,
    "price": 1,
    "address": "1528 w pico blvd",
    "zipCode": 90015,
    "note": "menudo",
    "latitude": 34.044100573916715,
    "longitude": -118.27580166213191
  },
  {
    "name": "el tepeyac cafe",
    "type": "mexican",
    "rating": 4,
    "price": 2,
    "address": "812 n evergreen ave",
    "zipCode": 90033,
    "note": "menudo",
    "latitude": 34.04788053753062,
    "longitude": -118.1975458332947
  },
  {
    "name": "qin wester noodle",
    "type": "chinese",
    "rating": 4,
    "price": 1,
    "address": "727 n broadway #111",
    "zipCode": 90012,
    "note": "guilin soup, pig ears",
    "latitude": 34.061384338478106,
    "longitude": -118.23948874863618
  },
  {
    "name": "tacos y birria la unica",
    "type": "mexican",
    "rating": 4,
    "price": 1,
    "address": "2840 e olympic blvd",
    "zipCode": 90023,
    "note": "goat birria",
    "latitude": 34.022686264308426,
    "longitude": -118.21662564864522
  },
  {
    "name": "echigo",
    "type": "sushi",
    "rating": 4,
    "price": 2,
    "address": "12217 santa monica blvd ste 201",
    "zipCode": 90025,
    "note": "omakase",
    "latitude": 34.04019112167961,
    "longitude": -118.46492981980504
  },
  {
    "name": "pearl river deli",
    "type": "chinese",
    "rating": 4,
    "price": 1,
    "address": "925 me ling way",
    "zipCode": 90012,
    "note": "charsui, hot dog bun, doughnut",
    "latitude": 34.06529895717101,
    "longitude": -118.23813614863518
  },
  {
    "name": "lamonicas ny pizza",
    "type": "pizza",
    "rating": 4,
    "price": 1,
    "address": "1066 gayley ave",
    "zipCode": 90024,
    "note": "ny style pizza",
    "latitude": 34.0610174507909,
    "longitude": -118.44683781980028
  },
  {
    "name": "attari sandwich shop",
    "type": "sandwich",
    "rating": 4,
    "price": 1,
    "address": "1388 westwood blvd",
    "zipCode": 90024,
    "note": "beef tongue sandwich. pair sandwitch with garlicky spinach lentil soup called osh. fri has braised lamb dish abgoosht",
    "latitude": 34.05576825900417,
    "longitude": -118.4415485486374
  },
  {
    "name": "phom penh noodle shack",
    "type": "cambodian",
    "rating": 4,
    "price": 1,
    "address": "1644 cherry ave",
    "zipCode": 90813,
    "note": "breakfast soup, house special",
    "latitude": 33.788080072222584,
    "longitude": -118.1674884045195
  },
  {
    "name": "los cinco puntos",
    "type": "mexican",
    "rating": 4,
    "price": 1,
    "address": "3300 e cesar e chavez ave",
    "zipCode": 90063,
    "note": "carnitas tacos",
    "latitude": 34.040147579264996,
    "longitude": -118.19294821980506
  },
  {
    "name": "cielito lindo",
    "type": "mexican",
    "rating": 4,
    "price": 1,
    "address": "e 23 olvera st",
    "zipCode": 90012,
    "note": "beef taquitos",
    "latitude": 34.05812183180359,
    "longitude": -118.23741094863708
  },
  {
    "name": "honeys kettle fried chicken",
    "type": "chicken",
    "rating": 4,
    "price": 2,
    "address": "9537 culver blvd",
    "zipCode": 90232,
    "note": "",
    "latitude": 34.0233771708287,
    "longitude": -118.39544696213675
  },
  {
    "name": "quan ngon nah trang restaurant",
    "type": "vietnamese",
    "rating": 4,
    "price": 1,
    "address": "311 e valley blvd unit 103",
    "zipCode": 91776,
    "note": "",
    "latitude": 34.08045244140033,
    "longitude": -118.09655313328733
  },
  {
    "name": "fish king",
    "type": "seafood",
    "rating": 4,
    "price": 2,
    "address": "722 n glendale ave",
    "zipCode": 91206,
    "note": "",
    "latitude": 34.156904332405965,
    "longitude": -118.24099116210546
  },
  {
    "name": "willie maes restaurant - venice",
    "type": "southern",
    "rating": 4,
    "price": 2,
    "address": "324 lincoln blvd",
    "zipCode": 90291,
    "note": "",
    "latitude": 34.00123629377132,
    "longitude": -118.46688860632254
  },
  {
    "name": "dong nae gil korean restaurant",
    "type": "korean",
    "rating": 4,
    "price": 2,
    "address": "15116 s western ave",
    "zipCode": 90249,
    "note": "korean soup",
    "latitude": 33.894152138233274,
    "longitude": -118.3087957063475
  },
  {
    "name": "banadir somali restaurant",
    "type": "somali",
    "rating": 4,
    "price": 1,
    "address": "137 arbor vitae st",
    "zipCode": 90301,
    "note": "only somali restaurant in la",
    "latitude": 33.95291980084567,
    "longitude": -118.35660124866148
  },
  {
    "name": "danny boys famous original pizza",
    "type": "pizza",
    "rating": 4,
    "price": 1,
    "address": "330 s hope st suite 205",
    "zipCode": 90071,
    "note": "",
    "latitude": 34.05300153986417,
    "longitude": -118.25252640631025
  },
  {
    "name": "chong qing special noodle",
    "type": "chinese",
    "rating": 4,
    "price": 2,
    "address": "708 e las tunas dr",
    "zipCode": 91776,
    "note": "sichuan",
    "latitude": 34.103216463581965,
    "longitude": -118.09173901979031
  },
  {
    "name": "kurrypinch",
    "type": "sri lankan",
    "rating": 4,
    "price": 2,
    "address": "1937 ventura blvd",
    "zipCode": 91356,
    "note": "sri lankan food",
    "latitude": 34.17313165628624,
    "longitude": -118.55518541792092
  },
  {
    "name": "mayura indian restaurant",
    "type": "indian",
    "rating": 4,
    "price": 2,
    "address": "10406 venice blvd",
    "zipCode": 90232,
    "note": "mayura utthapam - fermented rice pancake flatbread. use it to soak up fish curry",
    "latitude": 34.020219938998515,
    "longitude": -118.404167306318
  },
  {
    "name": "coni seafood",
    "type": "mexican",
    "rating": 4,
    "price": 2,
    "address": "4532 s centinela ave",
    "zipCode": 90066,
    "note": "aguachiles",
    "latitude": 33.99261230726175,
    "longitude": -118.42245969409188
  },
  {
    "name": "versailles cuban restaurant",
    "type": "cuban",
    "rating": 4,
    "price": 2,
    "address": "1415 s la cienega blvd",
    "zipCode": 90035,
    "note": "cuban lemon chicken - sour orange, garlic, onions",
    "latitude": 34.05280618564684,
    "longitude": -118.37641393640556
  },
  {
    "name": "el campeon taqueria",
    "type": "mexican",
    "rating": 4,
    "price": 1,
    "address": "31921 camino capistrano #15",
    "zipCode": 92675,
    "note": "",
    "latitude": 33.49908375888082,
    "longitude": -117.66352033283297
  },
  {
    "name": "banh cuon luu luyen",
    "type": "vietnamese",
    "rating": 4,
    "price": 1,
    "address": "14351 n euclid st #1j",
    "zipCode": 92843,
    "note": "banh cuon - giant rice noodles and fried shallots, you dip it in fish sauce",
    "latitude": 33.754030010190874,
    "longitude": -117.93852853462471
  },
  {
    "name": "the original pantry cafe",
    "type": "diner",
    "rating": 4,
    "price": 2,
    "address": "877 s figueroa st",
    "zipCode": 90017,
    "note": "",
    "latitude": 34.04658365769438,
    "longitude": -118.26287290571908
  },
  {
    "name": "gardena bowl coffee shop",
    "type": "diner",
    "rating": 4,
    "price": 1,
    "address": "15707 s vermont ave",
    "zipCode": 90247,
    "note": "the hawaiian royal and the garlic chicken. The first is what feels like a 10-pound plate of fried rice, chopped portuguese sausage, chashu, eggs and diced green onion, drizzled with sweet teriyaki sauce. it can feed a family of four. the garlic chicken is boneless and fried, served with a sweet soy sauce punctuated with just a hint of garlic",
    "latitude": 33.88818441141037,
    "longitude": -118.29213929041299
  },
  {
    "name": "bobs big boy",
    "type": "hamburger",
    "rating": 4,
    "price": 1,
    "address": "7447 firestone blvd",
    "zipCode": 90241,
    "note": "bowls of spaghetti covered in chili — the kind you’d find on a really good chili cheese dog, with shredded cheddar and diced onion. corned beef hash. the meat, chopped fresh every morning, tastes of coriander, mustard and peppercorns. you can order the plate with eggs, hash browns and pancakes (instead of toast)",
    "latitude": 33.94780190543032,
    "longitude": -118.14712119225071
  },
  {
    "name": "baos hog",
    "type": "chinese",
    "rating": 4,
    "price": 1,
    "address": "13918 brookhurst st",
    "zipCode": 92843,
    "note": "crispy pork belly and roasted duck",
    "latitude": 33.76039267912823,
    "longitude": -117.95469516345918
  },
  {
    "name": "panaderia custcatleca",
    "type": "bakery",
    "rating": 4,
    "price": 1,
    "address": "1566 w pico blvd",
    "zipCode": 90015,
    "note": "",
    "latitude": 34.044317923491874,
    "longitude": -118.27646583455552
  },
  {
    "name": "luv2eat thai bistro",
    "type": "thai",
    "rating": 4,
    "price": 1,
    "address": "6660 sunset blvd",
    "zipCode": 90028,
    "note": "",
    "latitude": 34.0978939066161,
    "longitude": -118.33585249036301
  },
  {
    "name": "el camaron pelado",
    "type": "spanish",
    "rating": 4,
    "price": 2,
    "address": "2676 pasadena ave",
    "zipCode": 90031,
    "note": "michelada, tacos dorados de camaron, tostada de pulp",
    "latitude": 34.07882779921521,
    "longitude": -118.21484903454747
  },
  {
    "name": "huge tree pastry",
    "type": "taiwanese",
    "rating": 4,
    "price": 1,
    "address": "423 n atlanticd blvd",
    "zipCode": 91754,
    "note": "tiao - chinese donut. with sweet or salty soy milk or tofu topped with pork floss and scallions or in the burrito like fan tuan",
    "latitude": 34.06768571676375,
    "longitude": -118.13494353455013
  },
  {
    "name": "delicious food corner",
    "type": "chinese",
    "rating": 4,
    "price": 1,
    "address": "2325 s garfield ave",
    "zipCode": 91754,
    "note": "donuts with hong kong milk tea or congee. steamed flour rolls wrapped around still crispy crullers and covered in creamy sesame soy sauce",
    "latitude": 34.03605291164489,
    "longitude": -118.13071220572162
  },
  {
    "name": "kim kee noodle cafe",
    "type": "chinese",
    "rating": 4,
    "price": 1,
    "address": "441 w garvey ave",
    "zipCode": 91754,
    "note": "guangdong province and south asian countries (chi chow cuisine). ask for side of tiao - crispy hot donut for dipping in soup",
    "latitude": 34.062802600535974,
    "longitude": -118.12841146338721
  },
  {
    "name": "tortas ahogadas guadalajara",
    "type": "mexican",
    "rating": 4,
    "price": 2,
    "address": "6052 santa fe ave",
    "zipCode": 90255,
    "note": "torta ahogada estilo guadalajra (sandwich). like a french dip with super sourdough salty bread. get it bien agoda - well drowned and ask for spicy",
    "latitude": 33.986577132442825,
    "longitude": -118.22988793456952
  },
  {
    "name": "bay cities italian deli and bakery",
    "type": "deli",
    "rating": 4,
    "price": 2,
    "address": "1517 lincoln blvd",
    "zipCode": 90401,
    "note": "italian subs, godmother sub",
    "latitude": 34.01816245831168,
    "longitude": -118.48920192106986
  },
  {
    "name": "lodge bread company",
    "type": "bakery",
    "rating": 4,
    "price": 2,
    "address": "11918 washington blvd",
    "zipCode": 90066,
    "note": "",
    "latitude": 33.99787849052644,
    "longitude": -118.42030019223876
  },
  {
    "name": "bronzed aussie",
    "type": "australian",
    "rating": 4,
    "price": 1,
    "address": "1437 s robertson blvd",
    "zipCode": 90035,
    "note": "australian bakery",
    "latitude": 34.053846372448945,
    "longitude": -118.38403386338945
  },
  {
    "name": "belizean paradise cuisine",
    "type": "caribbean",
    "rating": 4,
    "price": 1,
    "address": "1271 s la brea ave",
    "zipCode": 90019,
    "note": "",
    "latitude": 34.051730244737435,
    "longitude": -118.34476339407783
  },
  {
    "name": "trinistyle cuisine",
    "type": "caribbean",
    "rating": 4,
    "price": 1,
    "address": "2159 century blvd",
    "zipCode": 90047,
    "note": "trinidadian food. one sundays - trini style brunch",
    "latitude": 33.94592400905373,
    "longitude": -118.3174134922511
  },
  {
    "name": "philippe the original",
    "type": "sandwich",
    "rating": 4,
    "price": 1,
    "address": "1001 n alameda st",
    "zipCode": 90012,
    "note": "french dip, bread is good, pickled egg",
    "latitude": 34.05982841748869,
    "longitude": -118.23705964989583
  },
  {
    "name": "chaaste family market",
    "type": "filipino",
    "rating": 4,
    "price": 1,
    "address": "296 allen ave #3",
    "zipCode": 91106,
    "note": "filipino market and deli. good turon - ensamaidas",
    "latitude": 34.151454842171475,
    "longitude": -118.11264674987402
  },
  {
    "name": "delias restaurant",
    "type": "filipino",
    "rating": 4,
    "price": 1,
    "address": "860 carson st #121",
    "zipCode": 90745,
    "note": "also has jbjs bakery next door - sweet cheese rolls",
    "latitude": 33.8308784115084,
    "longitude": -118.2595723922784
  },
  {
    "name": "chow fun express",
    "type": "filipino",
    "rating": 3,
    "price": 1,
    "address": "148 w carson st",
    "zipCode": 90745,
    "note": "pancit - noodles",
    "latitude": 33.831426026520916,
    "longitude": -118.27873450762225
  },
  {
    "name": "manila sunrise",
    "type": "filipino",
    "rating": 4,
    "price": 1,
    "address": "21828 main st",
    "zipCode": 90745,
    "note": "palabok - thin noodle dish",
    "latitude": 33.82989813887349,
    "longitude": -118.27732643831045
  },
  {
    "name": "mami king restaurant",
    "type": "filipino",
    "rating": 4,
    "price": 1,
    "address": "22222 s main st",
    "zipCode": 90745,
    "note": "",
    "latitude": 33.82517744901643,
    "longitude": -118.2755828652956
  },
  {
    "name": "maynila on main street",
    "type": "filipino",
    "rating": 3,
    "price": 2,
    "address": "22102 s maint st",
    "zipCode": 90745,
    "note": "",
    "latitude": 33.826281892990785,
    "longitude": -118.27609307323168
  },
  {
    "name": "manilas lechon",
    "type": "filipino",
    "rating": 4,
    "price": 1,
    "address": "118 w carson st",
    "zipCode": 90745,
    "note": "",
    "latitude": 33.83100620062035,
    "longitude": -118.27834181926247
  },
  {
    "name": "manila good-ha fast food",
    "type": "filipino",
    "rating": 4,
    "price": 1,
    "address": "8205 woodman ave",
    "zipCode": 91402,
    "note": "turo turo style - cafeteria style",
    "latitude": 34.21957087529146,
    "longitude": -118.4324325038259
  },
  {
    "name": "sonoratown",
    "type": "mexican",
    "rating": 4,
    "price": 1,
    "address": "208 e 8th st",
    "zipCode": 90014,
    "note": "2nd best tacos burritos. after la palmas",
    "latitude": 34.04181745019279,
    "longitude": -118.25219912106424
  },
  {
    "name": "taco maria",
    "type": "mexican",
    "rating": 4,
    "price": 3,
    "address": "3313 hyland ave",
    "zipCode": 92626,
    "note": "",
    "latitude": 33.69486555394158,
    "longitude": -117.92574526347468
  },
  {
    "name": "guerrilla tacos",
    "type": "mexican",
    "rating": 4,
    "price": 2,
    "address": "2000 e 7th st",
    "zipCode": 90021,
    "note": "",
    "latitude": 34.0346740786699,
    "longitude": -118.23218366524581
  },
  {
    "name": "lasita rotisserie and natural wine",
    "type": "filipino",
    "rating": 4,
    "price": 2,
    "address": "727 n broadway #120",
    "zipCode": 90012,
    "note": "lechon",
    "latitude": 34.06165855523448,
    "longitude": -118.23943880571551
  },
  {
    "name": "cerveteca culver city",
    "type": "mexican",
    "rating": 4,
    "price": 2,
    "address": "9418 venice blvd",
    "zipCode": 90232,
    "note": "breakfast burrito",
    "latitude": 34.025187175636205,
    "longitude": -118.3952796787403
  },
  {
    "name": "quan mii restaurant",
    "type": "vietnamese",
    "rating": 4,
    "price": 1,
    "address": "9541 bolsa ave",
    "zipCode": 92683,
    "note": "banh beo xu quang - steamed rice cakes, banh canh - udon, banh xeo dac biet - mung bean crepe",
    "latitude": 33.74588207521334,
    "longitude": -117.9628404076426
  },
  {
    "name": "the brothers sushi",
    "type": "sushi",
    "rating": 4,
    "price": 2,
    "address": "21418 ventura blvd",
    "zipCode": 91364,
    "note": "",
    "latitude": 34.167929812701786,
    "longitude": -118.59830603637799
  },
  {
    "name": "mr sate",
    "type": "indonesian",
    "rating": 4,
    "price": 1,
    "address": "3456 motor ave #104",
    "zipCode": 90034,
    "note": "soto betawi - coconut soup, nasi goreng, gado gado - peanut salad, soto ayam - chicken soup, satay, Nasi Kunming - yellow rice, nasi bungkus, bakwong jadong - fried corn fritters",
    "latitude": 34.02679088931393,
    "longitude": -118.40844983455978
  },
  {
    "name": "khao soi thai",
    "type": "thai",
    "rating": 4,
    "price": 2,
    "address": "12215 ventura blvd #112",
    "zipCode": 91604,
    "note": "",
    "latitude": 34.14416553721367,
    "longitude": -118.39894240569578
  },
  {
    "name": "domi",
    "type": "dessert",
    "rating": 5,
    "price": 1,
    "address": "672 s santa fe ave",
    "zipCode": 90021,
    "note": "",
    "latitude": 34.035959148416836,
    "longitude": -118.22986924804971
  },
  {
    "name": "rincon hondureno",
    "type": "honduran",
    "rating": 4,
    "price": 2,
    "address": "1654 w adams blvd",
    "zipCode": 90007,
    "note": "",
    "latitude": 34.03271247181331,
    "longitude": -118.29894922106638
  },
  {
    "name": "thach che hien khanh",
    "type": "vietnamese",
    "rating": 4,
    "price": 1,
    "address": "9784 westminster blvd",
    "zipCode": 92844,
    "note": "viet dessert",
    "latitude": 33.75923900056365,
    "longitude": -117.95855319229534
  },
  {
    "name": "amara cafe and restaurant",
    "type": "coffee",
    "rating": 4,
    "price": 2,
    "address": "55 s raymond ave",
    "zipCode": 91105,
    "note": "colombian hot chocolate with cheese",
    "latitude": 34.14492031270036,
    "longitude": -118.14897931918763
  },
  {
    "name": "union restaurant",
    "type": "italian",
    "rating": 4,
    "price": 3,
    "address": "37 union st",
    "zipCode": 91103,
    "note": "meatballs, bay leaf dessert",
    "latitude": 34.147113233182104,
    "longitude": -118.14958407685913
  },
  {
    "name": "dimassis mediterranean buffet",
    "type": "mediterranean",
    "rating": 4,
    "price": 2,
    "address": "12727 towne center dr",
    "zipCode": 90703,
    "note": "mediterranean buffet 19.99",
    "latitude": 33.870224026927744,
    "longitude": -118.0606262229569
  },
  {
    "name": "pho hong hung",
    "type": "vietnamese",
    "rating": 4,
    "price": 1,
    "address": "13191 brookhurst st",
    "zipCode": 92843,
    "note": "bun ruie, chicken pho",
    "latitude": 33.77146999235399,
    "longitude": -117.95548040763643
  },
  {
    "name": "primos donuts",
    "type": "donuts",
    "rating": 4,
    "price": 1,
    "address": "2918 sawtelle blvd",
    "zipCode": 90064,
    "note": "buttermilk donuts",
    "latitude": 34.0270543560833,
    "longitude": -118.43158107688768
  },
  {
    "name": "colorado donuts",
    "type": "donuts",
    "rating": 4,
    "price": 1,
    "address": "1578 colorado blvd #14",
    "zipCode": 90041,
    "note": "",
    "latitude": 34.1394860435655,
    "longitude": -118.20083233453283
  },
  {
    "name": "delhi belly indian restaurant",
    "type": "indian",
    "rating": 4,
    "price": 2,
    "address": "8 w main st",
    "zipCode": 91801,
    "note": "malai broccoli",
    "latitude": 34.09495309715687,
    "longitude": -118.12698430755944
  },
  {
    "name": "heavy handed",
    "type": "hamburger",
    "rating": 4,
    "price": 1,
    "address": "2912 main st",
    "zipCode": 90405,
    "note": "smash burgers, chocolate dipped cones",
    "latitude": 33.99923092446845,
    "longitude": -118.48105949223834
  },
  {
    "name": "san pedro fish market and restaurant",
    "type": "seafood",
    "rating": 4,
    "price": 2,
    "address": "1150 s harbor blvd",
    "zipCode": 90731,
    "note": "",
    "latitude": 33.73382486265141,
    "longitude": -118.2774624499733
  },
  {
    "name": "pho 79",
    "type": "vietnamese",
    "rating": 4,
    "price": 1,
    "address": "9941 harvard ave",
    "zipCode": 92844,
    "note": "lots of awards",
    "latitude": 33.75253410879271,
    "longitude": -117.9556527327731
  },
  {
    "name": "bibis bakery and cafe",
    "type": "bakery",
    "rating": 4,
    "price": 1,
    "address": "8928 w pico blvd",
    "zipCode": 90035,
    "note": "jewish bakery",
    "latitude": 34.05530001342259,
    "longitude": -118.38670469222507
  },
  {
    "name": "carnitas el artista",
    "type": "mexican",
    "rating": 4,
    "price": 1,
    "address": "510 n la brea ave",
    "zipCode": 90301,
    "note": "",
    "latitude": 33.96960485566937,
    "longitude": -118.35568910573753
  },
  {
    "name": "button mash",
    "type": "bar",
    "rating": 4,
    "price": 2,
    "address": "1391 sunset blvd",
    "zipCode": 90026,
    "note": "",
    "latitude": 34.07428322740781,
    "longitude": -118.25159530571251
  },
  {
    "name": "panda inn",
    "type": "chinese",
    "rating": 4,
    "price": 2,
    "address": "3488 e foothill blvd",
    "zipCode": 91107,
    "note": "",
    "latitude": 34.149975808152654,
    "longitude": -118.07827363823407
  },
  {
    "name": "gacos old world grocery",
    "type": "grocery",
    "rating": 4,
    "price": 1,
    "address": "5702 york blvd",
    "zipCode": 90042,
    "note": "old sodas from around the world",
    "latitude": 34.11879164009354,
    "longitude": -118.1933188922099
  },
  {
    "name": "pasta e pasta by allegro",
    "type": "italian",
    "rating": 4,
    "price": 2,
    "address": "432 e 2nd st",
    "zipCode": 90012,
    "note": "",
    "latitude": 34.046670680656085,
    "longitude": -118.23842599222719
  },
  {
    "name": "shlap muan chicken wings",
    "type": "chicken",
    "rating": 4,
    "price": 1,
    "address": "2150 e south st #105",
    "zipCode": 90805,
    "note": "chicken wings",
    "latitude": 33.85969577128506,
    "longitude": -118.16631342110752
  },
  {
    "name": "bee taqueria",
    "type": "mexican",
    "rating": 4,
    "price": 1,
    "address": "5754 w adams blvd",
    "zipCode": 90016,
    "note": "taco omakaze",
    "latitude": 34.032426928400014,
    "longitude": -118.36886232106653
  },
  {
    "name": "heng heng chicken rice",
    "type": "thai",
    "rating": 4,
    "price": 2,
    "address": "5420 hollywood blvd",
    "zipCode": 90027,
    "note": "chicken rice, zaap fried chicken, zaap pork belly",
    "latitude": 34.10165182571383,
    "longitude": -118.30797471836821
  },
  {
    "name": "holy basil dtla",
    "type": "thai",
    "rating": 4,
    "price": 2,
    "address": "718 s los angeles st space a",
    "zipCode": 90014,
    "note": "tom yum, pad krapow, pad thai, seafood popup",
    "latitude": 34.04292972609382,
    "longitude": -118.25085364864047
  },
  {
    "name": "ayara thai",
    "type": "thai",
    "rating": 4,
    "price": 2,
    "address": "6245 w 87th st",
    "zipCode": 90045,
    "note": "pork bread, cyring triger, curry, special thai dinner events",
    "latitude": 33.958910852616526,
    "longitude": -118.39449800291874
  },
  {
    "name": "sweet rice",
    "type": "thia",
    "rating": 4,
    "price": 2,
    "address": "1630 w redondo beach blvd #4",
    "zipCode": 90247,
    "note": "khao soi, coconut ice cream, chamanow (thai lemonade)",
    "latitude": 33.88845490511828,
    "longitude": -118.30526861826569
  },
  {
    "name": "jidaiya ramen",
    "type": "ramen",
    "rating": 4,
    "price": 1,
    "address": "18537 s western ave",
    "zipCode": 90248,
    "note": "10 styles of ramen",
    "latitude": 33.86263981679693,
    "longitude": -118.30968604339705
  },
  {
    "name": "daniels backyard bbq",
    "type": "bbq",
    "rating": 4,
    "price": 2,
    "address": "3636 santa fe ave",
    "zipCode": 90810,
    "note": "bbq popup, breakfast burrito",
    "latitude": 33.82291346997469,
    "longitude": -118.21530258943173
  },
  {
    "name": "lolas by mfk",
    "type": "filipino",
    "rating": 4,
    "price": 2,
    "address": "2410 e katella ave",
    "zipCode": 92806,
    "note": "filipino brunch, ube pancakes, adobo fried rice, ube tres leches french toast, bangus sisig, iloco moco",
    "latitude": 33.80547868688533,
    "longitude": -117.88279995874348
  },
  {
    "name": "cafe 86",
    "type": "cafe",
    "rating": 4,
    "price": 1,
    "address": "9717 reseda blvd",
    "zipCode": 91324,
    "note": "turon poptart, ube truffles, ube leche flan cupcake, upside down halo halo, locations in northridge and lakewood",
    "latitude": 34.25596094108408,
    "longitude": -118.53554605711828
  },
  {
    "name": "moos craft barbeque",
    "type": "bbq",
    "rating": 4,
    "price": 2,
    "address": "2118 n broadway",
    "zipCode": 90031,
    "note": "thicc burger, pork ribs, jalapeno cheddar sausage, pulled pork, korean pork belly, sides, key lime pie, tres leches bread pudding",
    "latitude": 34.07345178609712,
    "longitude": -118.21814828465456
  },
  {
    "name": "quarter sheets",
    "type": "pizza",
    "rating": 4,
    "price": 2,
    "address": "1305 portia st",
    "zipCode": 90026,
    "note": "",
    "latitude": 34.076028846148446,
    "longitude": -118.25429751634772
  },
  {
    "name": "pizzeria sei",
    "type": "pizza",
    "rating": 4,
    "price": 2,
    "address": "8781 w pico blvd",
    "zipCode": 90035,
    "note": "",
    "latitude": 34.05516331643995,
    "longitude": -118.38339408765506
  },
  {
    "name": "de la nonna",
    "type": "italian",
    "rating": 4,
    "price": 2,
    "address": "710 e 4th pl",
    "zipCode": 90013,
    "note": "pizza",
    "latitude": 34.04515666988548,
    "longitude": -118.23747467416435
  },
  {
    "name": "ronan",
    "type": "italian",
    "rating": 4,
    "price": 2,
    "address": "7315 melrose ave",
    "zipCode": 90046,
    "note": "pizza",
    "latitude": 34.08388308963238,
    "longitude": -118.34920348765402
  },
  {
    "name": "noks kitchen",
    "type": "laotian",
    "rating": 4,
    "price": 2,
    "address": "9378 westminster blvd",
    "zipCode": 92683,
    "note": "khan bun kai (chicken curry noodle), mango pandan sticky rice, fried pork belly, oxtail soup, crispy fried rice salad",
    "latitude": 33.75908538834324,
    "longitude": -117.96596951835669
  },
  {
    "name": "oliboli donuts",
    "type": "donuts",
    "rating": 4,
    "price": 1,
    "address": "135 w first st suite b",
    "zipCode": 92780,
    "note": "1 of the sidecar founders started this spot",
    "latitude": 33.74613111665095,
    "longitude": -117.823862745339
  },
  {
    "name": "needle",
    "type": "chinese",
    "rating": 4,
    "price": 2,
    "address": "3827 sunset blvd",
    "zipCode": 90026,
    "note": "hong kong french toast",
    "latitude": 34.091904132833236,
    "longitude": -118.27950657601728
  },
  {
    "name": "zuzus petals",
    "type": "cafe",
    "rating": 4,
    "price": 2,
    "address": "801 3rd st",
    "zipCode": 90802,
    "note": "brunch",
    "latitude": 33.78093035522597,
    "longitude": -118.18840780171902
  },
  {
    "name": "chao krung thai restaurant",
    "type": "thai",
    "rating": 4,
    "price": 2,
    "address": "111 n fairfax ave",
    "zipCode": 90036,
    "note": "",
    "latitude": 34.074869727968775,
    "longitude": -118.36162232698186
  },
  {
    "name": "pixiu mala hongtang la",
    "type": "hot pot",
    "rating": 4,
    "price": 1,
    "address": "425 s western ave ste #e",
    "zipCode": 90020,
    "note": "mala hongtang, mala xiang guo",
    "latitude": 34.066430728296694,
    "longitude": -118.30959920057232
  },
  {
    "name": "shucos la",
    "type": "guatemalan",
    "rating": 4,
    "price": 1,
    "address": "735 e jefferson blvd",
    "zipCode": 90011,
    "note": "garnachas (fried masa rounds loaded with meat), shucos (guatemalan hotdog), rellenitos de platano (fried plantains stuffed with refried beans and chocolate)",
    "latitude": 34.01503038542548,
    "longitude": -118.26345795882018
  },
  {
    "name": "open market",
    "type": "cafe",
    "rating": 4,
    "price": 2,
    "address": "3339 wilshire blvd",
    "zipCode": 90010,
    "note": "sandwiches - normandie (with dipping au jus)",
    "latitude": 34.06222852318125,
    "longitude": -118.29584117416385
  },
  {
    "name": "scoops on tap",
    "type": "ice cream",
    "rating": 4,
    "price": 1,
    "address": "491 n citrus ave",
    "zipCode": 91723,
    "note": "butterbeer, beer floats with icecream, infuse ice cream with local beers on tap",
    "latitude": 34.09002013599769,
    "longitude": -117.89033471649022
  },
  {
    "name": "earles on crenshaw",
    "type": "american",
    "rating": 4,
    "price": 1,
    "address": "3864 crenshaw",
    "zipCode": 90008,
    "note": "chili dog, loaded chili cheese fries, jamaican patties, salmon burger",
    "latitude": 34.01586073099389,
    "longitude": -118.33483325767152
  },
  {
    "name": "portobancos restaurant",
    "type": "nicaraguan",
    "rating": 4,
    "price": 2,
    "address": "1225 venice blvd",
    "zipCode": 90006,
    "note": "fritanga (rice, plantain, meat), cacao drink",
    "latitude": 34.043192120095554,
    "longitude": -118.2817515782921
  },
  {
    "name": "ai pono cafe",
    "type": "hawaiian",
    "rating": 4,
    "price": 2,
    "address": "283 e 17th st suite a",
    "zipCode": 92627,
    "note": "interesting spins on hawaiian comfort food, pineapple curry risotto",
    "latitude": 33.633121961781285,
    "longitude": -117.91662120131122
  },
  {
    "name": "oc and lau 2 restaurant bar",
    "type": "seafood",
    "rating": 4,
    "price": 2,
    "address": "9892 westminster blvd #r",
    "zipCode": 92844,
    "note": "",
    "latitude": 33.75829462137772,
    "longitude": -117.95656503650929
  },
  {
    "name": "papillon international bakery",
    "type": "bakery",
    "rating": 4,
    "price": 1,
    "address": "5019 hollywood blvd",
    "zipCode": 90027,
    "note": "",
    "latitude": 34.102111166250644,
    "longitude": -118.29895452108721
  },
  {
    "name": "dulans",
    "type": "soul food",
    "rating": 4,
    "price": 2,
    "address": "1714 w century blvd",
    "zipCode": 90047,
    "note": "",
    "latitude": 34.102111166250644,
    "longitude": -118.29895452108721
  },
  {
    "name": "hambones",
    "type": "bbq",
    "rating": 4,
    "price": 2,
    "address": "9825 belmont st",
    "zipCode": 90706,
    "note": "",
    "latitude": 33.88400085282339,
    "longitude": -118.1241815634678
  },
  {
    "name": "fixins soul kitchen",
    "type": "soul food",
    "rating": 4,
    "price": 2,
    "address": "800 w olympic blvd a150",
    "zipCode": 90015,
    "note": "",
    "latitude": 33.88400085282339,
    "longitude": -118.1241815634678
  },
  {
    "name": "bafang dumpling",
    "type": "taiwanese",
    "rating": 4,
    "price": 2,
    "address": "1552 s azusa ave suite b",
    "zipCode": 91748,
    "note": "",
    "latitude": 33.99425751339779,
    "longitude": -117.93090644994797
  },
  {
    "name": "cajun fried chicken",
    "type": "chicken",
    "rating": 4,
    "price": 1,
    "address": "4501 w martin luther king jr blvd",
    "zipCode": 90016,
    "note": "",
    "latitude": 34.01834384355507,
    "longitude": -118.34572666528366
  },
  {
    "name": "el ruby mexican restaurant",
    "type": "mexican",
    "rating": 4,
    "price": 1,
    "address": "4106 san fernando rd e",
    "zipCode": 91204,
    "note": "",
    "latitude": 34.12971630533031,
    "longitude": -118.25961172292799
  },
  {
    "name": "saltwater deck",
    "type": "american",
    "rating": 4,
    "price": 2,
    "address": "2630 e ocean blvd",
    "zipCode": 90803,
    "note": "breakfast burrito",
    "latitude": 33.76239645699298,
    "longitude": -118.16305969417903
  },
  {
    "name": "miaison matho",
    "type": "cafe",
    "rating": 4,
    "price": 2,
    "address": "4770 melrose ave",
    "zipCode": 90029,
    "note": "",
    "latitude": 34.08349594968586,
    "longitude": -118.30428530759765
  },
  {
    "name": "nep cafe",
    "type": "cafe",
    "rating": 4,
    "price": 2,
    "address": "10836 warner ave",
    "zipCode": 92708,
    "note": "",
    "latitude": 33.71620659219297,
    "longitude": -117.93976817884838
  },
  {
    "name": "wake and late",
    "type": "breakfast",
    "rating": 4,
    "price": 1,
    "address": "105 e 6th st",
    "zipCode": 90014,
    "note": "",
    "latitude": 34.045335031907904,
    "longitude": -118.24953259226521
  },
  {
    "name": "dun huang",
    "type": "chinese",
    "rating": 4,
    "price": 2,
    "address": "1370 fullerton rd #105",
    "zipCode": 91748,
    "note": "",
    "latitude": 33.9934890243144,
    "longitude": -117.90224456159493
  },
  {
    "name": "donut prince",
    "type": "donuts",
    "rating": 4,
    "price": 1,
    "address": "1721 w olive ave",
    "zipCode": 91506,
    "note": "",
    "latitude": 34.16724986827796,
    "longitude": -118.32361471922442
  },
  {
    "name": "daily donut",
    "type": "donuts",
    "rating": 4,
    "price": 1,
    "address": "2009 venice blvd",
    "zipCode": 90006,
    "note": "",
    "latitude": 34.044200923923974,
    "longitude": -118.30067344808884
  },
  {
    "name": "new york chicken and gyro",
    "type": "middle eastern",
    "rating": 4,
    "price": 2,
    "address": "11419 santa monica blvd",
    "zipCode": 90025,
    "note": "",
    "latitude": 34.04609726932986,
    "longitude": -118.45158482294777
  },
  {
    "name": "master ha korean restaurant",
    "type": "korean",
    "rating": 4,
    "price": 2,
    "address": "1147 s western ave",
    "zipCode": 90006,
    "note": "",
    "latitude": 34.049782313383794,
    "longitude": -118.30953697877021
  },
  {
    "name": "the pie bar",
    "type": "pie",
    "rating": 4,
    "price": 2,
    "address": "450 pine ave",
    "zipCode": 90802,
    "note": "",
    "latitude": 33.77255055345513,
    "longitude": -118.19220784999996
  },
  {
    "name": "paderia bakehouse",
    "type": "bakery",
    "rating": 4,
    "price": 2,
    "address": "3032 wilshire blvd suite e",
    "zipCode": 90403,
    "note": "",
    "latitude": 34.03956610411857,
    "longitude": -118.47251716343129
  },
  {
    "name": "proof bakery",
    "type": "bakery",
    "rating": 4,
    "price": 2,
    "address": "3156 glendale blvd",
    "zipCode": 90039,
    "note": "",
    "latitude": 34.117112297844976,
    "longitude": -118.26166413827244
  },
  {
    "name": "ritas italian ice and frozen custard",
    "type": "ice cream",
    "rating": 4,
    "price": 1,
    "address": "11134 palms blvd",
    "zipCode": 90034,
    "note": "",
    "latitude": 34.019418455889365,
    "longitude": -118.42164082295398
  },
  {
    "name": "angry egret dinette",
    "type": "sandwich",
    "rating": 4,
    "price": 2,
    "address": "970 n broadway ste 114",
    "zipCode": 90012,
    "note": "breakfast burrito",
    "latitude": 34.06626774528744,
    "longitude": -118.23580270575431
  },
  {
    "name": "panda express",
    "type": "chinese",
    "rating": 4,
    "price": 1,
    "address": "3867 e foothill blvd",
    "zipCode": 91107,
    "note": "panda express test kitchen, orange chicken burrito",
    "latitude": 34.15117604288172,
    "longitude": -118.06827910388708
  },
  {
    "name": "the hangar food hall",
    "type": "food court",
    "rating": 4,
    "price": 2,
    "address": "4150 mcgowen st",
    "zipCode": 90808,
    "note": "",
    "latitude": 33.82935261604399,
    "longitude": -118.14499369231602
  },
  {
    "name": "pioneer chicken la",
    "type": "chicken",
    "rating": 4,
    "price": 1,
    "address": "904 s soto st",
    "zipCode": 90023,
    "note": "",
    "latitude": 34.034295079874624,
    "longitude": -118.21550390391457
  },
  {
    "name": "restaurante tierra caliente",
    "type": "mexican",
    "rating": 4,
    "price": 2,
    "address": "2910 division st",
    "zipCode": 90065,
    "note": "",
    "latitude": 34.10296686736898,
    "longitude": -118.23582424992246
  },
  {
    "name": "gish bac",
    "type": "mexican",
    "rating": 4,
    "price": 2,
    "address": "4163 w washington blvd",
    "zipCode": 90018,
    "note": "",
    "latitude": 34.040255440966895,
    "longitude": -118.33014066343118
  },
  {
    "name": "jerusalem chicken",
    "type": "chicken",
    "rating": 4,
    "price": 2,
    "address": "4448 w slauson ave",
    "zipCode": 90043,
    "note": "",
    "latitude": 33.9887896284822,
    "longitude": -118.35351346344335
  },
  {
    "name": "rosalinds",
    "type": "ethiopian",
    "rating": 4,
    "price": 1,
    "address": "1044 s fairfax ave",
    "zipCode": 90019,
    "note": "",
    "latitude": 34.05708245417609,
    "longitude": -118.36421280760389
  },
  {
    "name": "sushi chitose",
    "type": "sushi",
    "rating": 4,
    "price": 2,
    "address": "402 s pacific coast hwy",
    "zipCode": 90277,
    "note": "",
    "latitude": 33.83626132725697,
    "longitude": -118.38494537882048
  },
  {
    "name": "full proof pizza",
    "type": "pizza",
    "rating": 4,
    "price": 1,
    "address": "11918 w washington blvd",
    "zipCode": 90066,
    "note": "",
    "latitude": 33.997828206289746,
    "longitude": -118.42029356344113
  },
  {
    "name": "bronx sandwich company",
    "type": "sandwich",
    "rating": 4,
    "price": 2,
    "address": "949 s euclid st",
    "zipCode": 92802,
    "note": "",
    "latitude": 33.81857808946247,
    "longitude": -117.94243810581251
  },
  {
    "name": "amboy quality meats and delicious burgers",
    "type": "hamburger",
    "rating": 4,
    "price": 2,
    "address": "727 n broadway no 117",
    "zipCode": 90012,
    "note": "",
    "latitude": 34.061589643771406,
    "longitude": -118.23970372294414
  },
  {
    "name": "monroe place",
    "type": "sandwich",
    "rating": 4,
    "price": 2,
    "address": "8541 washington blvd",
    "zipCode": 90232,
    "note": "",
    "latitude": 34.031127905437636,
    "longitude": -118.3803468211041
  },
  {
    "name": "tacos tamix taco truck",
    "type": "mexican",
    "rating": 4,
    "price": 1,
    "address": "1998-1982 s hoover st",
    "zipCode": 90007,
    "note": "",
    "latitude": 34.038329244401766,
    "longitude": -118.28380909411423
  },
  {
    "name": "anajak thai cuisine",
    "type": "thai",
    "rating": 4,
    "price": 2,
    "address": "14704 ventura blvd",
    "zipCode": 91403,
    "note": "",
    "latitude": 34.1516895780952,
    "longitude": -118.45331444806365
  },
  {
    "name": "ditroit taqueria",
    "type": "mexican",
    "rating": 4,
    "price": 1,
    "address": "2117 violet st",
    "zipCode": 90021,
    "note": "",
    "latitude": 34.03325272687916,
    "longitude": -118.22907610760946
  },
  {
    "name": "death and co",
    "type": "bar",
    "rating": 4,
    "price": 3,
    "address": "818 e 3rd st",
    "zipCode": 90013,
    "note": "",
    "latitude": 34.04592161885607,
    "longitude": -118.23572142110045
  },
  {
    "name": "la cha cha cha",
    "type": "bar",
    "rating": 4,
    "price": 3,
    "address": "812 e 3rd st",
    "zipCode": 90013,
    "note": "",
    "latitude": 34.04597142889263,
    "longitude": -118.23586040760655
  }
]