[
  {
    "name": "lacha somutm",
    "type": "thai",
    "rating": 4,
    "dollarSign": 1,
    "address": "5171 hollywood blvd",
    "zipCode": 90027,
    "note": "isaan sausage",
    "latitude": 34.102079999658656,
    "longitude": -118.30287954524144
  },
  {
    "name": "taron bakery",
    "type": "armenian",
    "rating": 4,
    "dollarSign": 1,
    "address": "4950 hollywood blvd",
    "zipCode": 90027,
    "note": "armenian bakery",
    "latitude": 34.10306436135933,
    "longitude": -118.29757968460632
  },
  {
    "name": "chuan chim thai cafe",
    "type": "thai",
    "rating": 4,
    "dollarSign": 1,
    "address": "5644 hollywood blvd",
    "zipCode": 90028,
    "note": "",
    "latitude": 34.10168703621626,
    "longitude": -118.31304163174993
  },
  {
    "name": "natalie peruvian seafood restaurant",
    "type": "seafood",
    "rating": 4,
    "dollarSign": 1,
    "address": "5759 hollywood blvd",
    "zipCode": 90028,
    "note": "",
    "latitude": 34.10240314410676,
    "longitude": -118.31511726497573
  },
  {
    "name": "siam sunset",
    "type": "thai",
    "rating": 4,
    "dollarSign": 1,
    "address": "5265 sunset blvd",
    "zipCode": 90027,
    "note": "thai breakfast donuts",
    "latitude": 34.09844935323779,
    "longitude": -118.30473171640554
  },
  {
    "name": "all time",
    "type": "breakfast",
    "rating": 4,
    "dollarSign": 1,
    "address": "2040 hillhurst ave",
    "zipCode": 90027,
    "note": "breakfast burrito",
    "latitude": 34.09844935323779,
    "longitude": -118.30473171640554
  },
  {
    "name": "la rose cafe",
    "type": "filipino",
    "rating": 4,
    "dollarSign": 1,
    "address": "4749 fountain ave",
    "zipCode": 90029,
    "note": "cebuchon, pinkabet",
    "latitude": 34.090845430329374,
    "longitude": -118.30796697407801
  },
  {
    "name": "tlayuda la restaurant",
    "type": "mexican",
    "rating": 4,
    "dollarSign": 1,
    "address": "5450 santa monica blvd",
    "zipCode": 90029,
    "note": "oaxacan",
    "latitude": 34.090845430329374,
    "longitude": -118.30796697407801
  },
  {
    "name": "dear bella creamery",
    "type": "ice cream",
    "rating": 4,
    "dollarSign": 1,
    "address": "1253 vine st #12",
    "zipCode": 90038,
    "note": "plant based",
    "latitude": 34.09436385236305,
    "longitude": -118.32779437407784
  },
  {
    "name": "musso & frank grill",
    "type": "american",
    "rating": 4,
    "dollarSign": 3,
    "address": "6667 hollywood blvd",
    "zipCode": 90028,
    "note": "strong drinks",
    "latitude": 34.101939166399724,
    "longitude": -118.33536101979057
  },
  {
    "name": "el churrasco chapin",
    "type": "guatemalan",
    "rating": 4,
    "dollarSign": 1,
    "address": "820 n western ave",
    "zipCode": 90029,
    "note": "",
    "latitude": 34.08550454322332,
    "longitude": -118.30858428571696
  },
  {
    "name": "le coupe",
    "type": "chicken",
    "rating": 4,
    "dollarSign": 1,
    "address": "709 n western ave",
    "zipCode": 90029,
    "note": "chicken dredged in chile honey, corn ribs, blue cornbread, watermelon stalad",
    "latitude": 34.083983489421705,
    "longitude": -118.30937890291439
  },
  {
    "name": "luv2eat thai bistro",
    "type": "thai",
    "rating": 4,
    "dollarSign": 2,
    "address": "6660 sunset blvd",
    "zipCode": 90028,
    "note": "",
    "latitude": 34.0979383975643,
    "longitude": -118.33593830291382
  },
  {
    "name": "ramen tatsunoya",
    "type": "ramen",
    "rating": 4,
    "dollarSign": 1,
    "address": "3440 sunset blvd",
    "zipCode": 90026,
    "note": "",
    "latitude": 34.09026280123649,
    "longitude": -118.27693909052655
  },
  {
    "name": "wow choripan",
    "type": "argentinian",
    "rating": 4,
    "dollarSign": 1,
    "address": "375 n western ave",
    "zipCode": 90004,
    "note": "",
    "latitude": 34.07815827451928,
    "longitude": -118.3093238164063
  },
  {
    "name": "all day baby",
    "type": "breakfast",
    "rating": 4,
    "dollarSign": 1,
    "address": "3200 susnset blvd",
    "zipCode": 90026,
    "note": "breakfast burrito, biscuit sandwhich",
    "latitude": 34.08561991468537,
    "longitude": -118.27510180291428
  },
  {
    "name": "saikai ramen bar",
    "type": "ramen",
    "rating": 4,
    "dollarSign": 2,
    "address": "209 n western ave #b",
    "zipCode": 90004,
    "note": "ramen. sandos",
    "latitude": 34.075233768014215,
    "longitude": -118.30962890291471
  },
  {
    "name": "astro family restaurant",
    "type": "diner",
    "rating": 4,
    "dollarSign": 1,
    "address": "2300 fletcher dr",
    "zipCode": 90039,
    "note": "old school fam diner. veal parmesan, pastitsio",
    "latitude": 34.10461336049998,
    "longitude": -118.25858440259259
  },
  {
    "name": "bodega park",
    "type": "sandwich",
    "rating": 4,
    "dollarSign": 1,
    "address": "2852 sunset blvd",
    "zipCode": 90026,
    "note": "chopped cheese",
    "latitude": 34.08271322017701,
    "longitude": -118.2731919298977
  },
  {
    "name": "farina pizza",
    "type": "pizza",
    "rating": 4,
    "dollarSign": 1,
    "address": "119 s western ave",
    "zipCode": 90004,
    "note": "",
    "latitude": 34.07515293379964,
    "longitude": -118.30913427761607
  },
  {
    "name": "oui melrose",
    "type": "restaurant",
    "rating": 4,
    "dollarSign": 1,
    "address": "6909 melrose ave",
    "zipCode": 90038,
    "note": "random stuff on menu",
    "latitude": 34.08389984796307,
    "longitude": -118.34197796058673
  },
  {
    "name": "barn cafe and restaurant",
    "type": "restaurant",
    "rating": 4,
    "dollarSign": 1,
    "address": "228 s oxford ave",
    "zipCode": 90004,
    "note": "cafe in day and bar during nite. korean anju",
    "latitude": 34.07121966376696,
    "longitude": -118.30771814802078
  },
  {
    "name": "all angolo pizza and pasta",
    "type": "pizza",
    "rating": 4,
    "dollarSign": 1,
    "address": "4050 w 3rd st",
    "zipCode": 90020,
    "note": "",
    "latitude": 34.0689261643917,
    "longitude": -118.30191329096216
  },
  {
    "name": "mini kabob",
    "type": "armenian",
    "rating": 4,
    "dollarSign": 2,
    "address": "313 1/2 vine st",
    "zipCode": 91204,
    "note": "",
    "latitude": 34.141116569403124,
    "longitude": -118.25855961640411
  },
  {
    "name": "dollar hits",
    "type": "filipino",
    "rating": 4,
    "dollarSign": 1,
    "address": "2432 w temple st",
    "zipCode": 90026,
    "note": "",
    "latitude": 34.07163272822482,
    "longitude": -118.27292850291475
  },
  {
    "name": "mensch bakery",
    "type": "bakery",
    "rating": 4,
    "dollarSign": 2,
    "address": "7122 beverly blvd",
    "zipCode": 90036,
    "note": "jewish bakery",
    "latitude": 34.07618220579587,
    "longitude": -118.344944889423
  },
  {
    "name": "foxy's restaurant",
    "type": "american",
    "rating": 4,
    "dollarSign": 1,
    "address": "206 w colorado st",
    "zipCode": 91204,
    "note": "brunch, chile relleno omelets, huevos machaca, chilaquiles, tri tip barbacoa with eggs",
    "latitude": 34.14244891761967,
    "longitude": -118.2567286621088
  },
  {
    "name": "kubo restaurant",
    "type": "filipino",
    "rating": 4,
    "dollarSign": 1,
    "address": "2330 w temple st",
    "zipCode": 90026,
    "note": "",
    "latitude": 34.071477802804274,
    "longitude": -118.27170610476772
  },
  {
    "name": "yakis the original teriyaki",
    "type": "restaurant",
    "rating": 4,
    "dollarSign": 1,
    "address": "904 w alameda ave",
    "zipCode": 91506,
    "note": "",
    "latitude": 34.16648776680989,
    "longitude": -118.31175080969645
  },
  {
    "name": "maxs restaurant",
    "type": "filipino",
    "rating": 4,
    "dollarSign": 2,
    "address": "313 w broadway",
    "zipCode": 91204,
    "note": "sisig",
    "latitude": 34.147169223210625,
    "longitude": -118.25879060661791
  },
  {
    "name": "bea beas",
    "type": "breakfast",
    "rating": 4,
    "dollarSign": 1,
    "address": "301 n central ave",
    "zipCode": 91203,
    "note": "breakfast, pancakes, green tea pancakes",
    "latitude": 34.15415881077139,
    "longitude": -118.25846948768196
  },
  {
    "name": "monta factory",
    "type": "restaurant",
    "rating": 4,
    "dollarSign": 1,
    "address": "1208 w glenoaks blvd",
    "zipCode": 91201,
    "note": "armenian dumplings",
    "latitude": 34.16523571868338,
    "longitude": -118.28186538756717
  },
  {
    "name": "sasoun bakery",
    "type": "bakery",
    "rating": 4,
    "dollarSign": 1,
    "address": "625 e colorado st",
    "zipCode": 91205,
    "note": "",
    "latitude": 34.14495585339125,
    "longitude": -118.24749038091736
  },
  {
    "name": "nerssess vanak restaurant",
    "type": "persian",
    "rating": 4,
    "dollarSign": 2,
    "address": "6524 san fernando rd",
    "zipCode": 91201,
    "note": "dial - iranian labm stew, abghost, lavash",
    "latitude": 34.16847663491929,
    "longitude": -118.29067043174766
  },
  {
    "name": "cofax",
    "type": "cafe",
    "rating": 4,
    "dollarSign": 1,
    "address": "440 n fairfax ave",
    "zipCode": 90036,
    "note": "fancier breakfast burritos",
    "latitude": 34.079522685076476,
    "longitude": -118.36122348757014
  },
  {
    "name": "little ongpin",
    "type": "filipino",
    "rating": 3,
    "dollarSign": 1,
    "address": "1700 beverly blvd",
    "zipCode": 90026,
    "note": "turons, soups, miki bihon",
    "latitude": 34.066958548652096,
    "longitude": -118.26599508511705
  },
  {
    "name": "button mash",
    "type": "tacos",
    "rating": 4,
    "dollarSign": 2,
    "address": "1391 sunset blvd",
    "zipCode": 90026,
    "note": "",
    "latitude": 34.07429218344426,
    "longitude": -118.25159528757035
  },
  {
    "name": "corner cottage",
    "type": "breakfast",
    "rating": 4,
    "dollarSign": 1,
    "address": "310 s vicotry blvd",
    "zipCode": 91502,
    "note": "burritos, salsa",
    "latitude": 34.170975136666144,
    "longitude": -118.3149051029114
  },
  {
    "name": "guelaguetza restaurant",
    "type": "mexican",
    "rating": 4,
    "dollarSign": 2,
    "address": "3014 w olympic blvd",
    "zipCode": 90006,
    "note": "mole negro",
    "latitude": 34.05255848800595,
    "longitude": -118.30066810291555
  },
  {
    "name": "carribean soul kitchen la",
    "type": "caribbean",
    "rating": 4,
    "dollarSign": 2,
    "address": "5354 wilshire blvd",
    "zipCode": 90036,
    "note": "carribean and panamanian food, fresh drinks, fried whole snapper, patacon - fried plantain and fried yuca, sancochio - rice corn chicken yuca soup, yuca ball",
    "latitude": 34.06232537536023,
    "longitude": -118.34558384709574
  },
  {
    "name": "langers deli",
    "type": "deli",
    "rating": 4,
    "dollarSign": 2,
    "address": "704 s alvarado",
    "zipCode": 90057,
    "note": "latkes - potato pancake - try with ketchup or apple sauce and sour cream",
    "latitude": 34.05636493609678,
    "longitude": -118.27684221825979
  },
  {
    "name": "met her at a bar",
    "type": "cafe",
    "rating": 4,
    "dollarSign": 1,
    "address": "759 s la brea",
    "zipCode": 90036,
    "note": "unique waffle choices, khai jia (thai omelette), normal brunch fair",
    "latitude": 34.06082422627468,
    "longitude": -118.34480104524289
  },
  {
    "name": "the parks finest",
    "type": "filipino",
    "rating": 4,
    "dollarSign": 2,
    "address": "1267 w temple st",
    "zipCode": 90026,
    "note": "mama leahs coconut beef, cornbread bibingka",
    "latitude": 34.06662965661503,
    "longitude": -118.25399757561821
  },
  {
    "name": "valerie confections",
    "type": "chocolate cafe",
    "rating": 4,
    "dollarSign": 3,
    "address": "1936 w glenoaks blvd",
    "zipCode": 91201,
    "note": "",
    "latitude": 34.17474947495606,
    "longitude": -118.29511776058334
  },
  {
    "name": "lutong bahay restaurant",
    "type": "filipino",
    "rating": 4,
    "dollarSign": 1,
    "address": "3756 w ave 40",
    "zipCode": 90065,
    "note": "kare kare and caldereta",
    "latitude": 34.11970218612334,
    "longitude": -118.22790663174926
  },
  {
    "name": "auntie dees pan de manila",
    "type": "bakery",
    "rating": 4,
    "dollarSign": 1,
    "address": "3756 w ave 40 #1g",
    "zipCode": 90065,
    "note": "ensaimadas",
    "latitude": 34.11989919604753,
    "longitude": -118.22738327407708
  },
  {
    "name": "irvs burgers",
    "type": "hamburger",
    "rating": 4,
    "dollarSign": 1,
    "address": "1000 s la brea ave",
    "zipCode": 90019,
    "note": "",
    "latitude": 34.063866093653786,
    "longitude": -118.34557839919225
  },
  {
    "name": "kusina filipina los angeles",
    "type": "filipino",
    "rating": 4,
    "dollarSign": 2,
    "address": "4157 eagle rock blvd",
    "zipCode": 90065,
    "note": "sisig milkfish",
    "latitude": 34.122369503111685,
    "longitude": -118.22583091978578
  },
  {
    "name": "la cevicheria",
    "type": "seafood",
    "rating": 4,
    "dollarSign": 2,
    "address": "3809 w pico blvd",
    "zipCode": 90019,
    "note": "ceviche, concha negra",
    "latitude": 34.04781553416221,
    "longitude": -118.32278451640728
  },
  {
    "name": "yang chow",
    "type": "chinese",
    "rating": 4,
    "dollarSign": 2,
    "address": "819 n broadway",
    "zipCode": 90012,
    "note": "slippery shrimp",
    "latitude": 34.0659025657863,
    "longitude": -118.23818286293368
  },
  {
    "name": "borekas sephardic pastries",
    "type": "bakery",
    "rating": 4,
    "dollarSign": 1,
    "address": "15030 ventura blvd #25",
    "zipCode": 91403,
    "note": "israeli pastries - borekas",
    "latitude": 34.15283691122923,
    "longitude": -118.46116910628699
  },
  {
    "name": "domingos italian deli",
    "type": "deli",
    "rating": 4,
    "dollarSign": 2,
    "address": "17548 ventura blvd",
    "zipCode": 91316,
    "note": "",
    "latitude": 34.16175833661901,
    "longitude": -118.51575228756727
  },
  {
    "name": "maxs restaurant",
    "type": "filipino",
    "rating": 4,
    "dollarSign": 2,
    "address": "313 w broadway",
    "zipCode": 91204,
    "note": "sisig",
    "latitude": 34.1471958607119,
    "longitude": -118.25872623360121
  },
  {
    "name": "ini ristorante",
    "type": "fusion",
    "rating": 4,
    "dollarSign": 3,
    "address": "16129 brookhurst st",
    "zipCode": 92708,
    "note": "japanese italian fusion",
    "latitude": 33.72844700935692,
    "longitude": -117.95512317594346
  },
  {
    "name": "springbok bar & grill",
    "type": "south african",
    "rating": 4,
    "dollarSign": 2,
    "address": "16153 victory blvd",
    "zipCode": 91406,
    "note": "",
    "latitude": 34.18707767837341,
    "longitude": -118.48572491977056
  },
  {
    "name": "nillys burgers",
    "type": "hamburger",
    "rating": 4,
    "dollarSign": 1,
    "address": "17603 pioneer blvd",
    "zipCode": 90701,
    "note": "",
    "latitude": 33.87123473478507,
    "longitude": -118.08290982990506
  },
  {
    "name": "zam zam foods",
    "type": "pakistani",
    "rating": 4,
    "dollarSign": 1,
    "address": "13645/49 s inglewood ave",
    "zipCode": 90250,
    "note": "pakistani food",
    "latitude": 33.908129745024794,
    "longitude": -118.36164473360934
  },
  {
    "name": "nikis halal grill & karahi",
    "type": "pakistani/indian",
    "rating": 4,
    "dollarSign": 1,
    "address": "2031 e 1st st a3",
    "zipCode": 92705,
    "note": "karahi",
    "latitude": 33.74657150462479,
    "longitude": -117.83784209103732
  },
  {
    "name": "johnnys pastrami",
    "type": "sandwich",
    "rating": 4,
    "dollarSign": 2,
    "address": "4327 w adams blvd",
    "zipCode": 90007,
    "note": "pastrami reuben, johny fries, pastrami tacos",
    "latitude": 34.03297490525339,
    "longitude": -118.3329802182607
  },
  {
    "name": "tacos virgina",
    "type": "mexican",
    "rating": 4,
    "dollarSign": 1,
    "address": "4081 whittier blvd",
    "zipCode": 90023,
    "note": "menudo, birria de chivo",
    "latitude": 34.02419314647025,
    "longitude": -118.1834926894249
  },
  {
    "name": "the independence",
    "type": "pub",
    "rating": 4,
    "dollarSign": 2,
    "address": "205 broadway",
    "zipCode": 90401,
    "note": "coconut french toast, fried egg sandwhich, endless mimosas, great bloodies",
    "latitude": 34.01395628078229,
    "longitude": -118.49551767748335
  },
  {
    "name": "lucys restaurant & bakery",
    "type": "mexican",
    "rating": 4,
    "dollarSign": 2,
    "address": "1330 w washington blvd",
    "zipCode": 90007,
    "note": "",
    "latitude": 34.039961648719284,
    "longitude": -118.28495753175216
  }
]