[
  {
    "name": "eight street soondae",
    "type": "korean",
    "rating": 4,
    "price": 2,
    "address": "2703 w 8th st",
    "zipCode": 90005,
    "note": "soondae platter",
    "latitude": 34.058342451037234,
    "longitude": -118.28471039281747
  },
  {
    "name": "birrieria san marcos",
    "type": "mexican",
    "rating": 4,
    "price": 1,
    "address": "5937 hazeltine ave",
    "zipCode": 91401,
    "note": "birria tacos",
    "latitude": 34.17884074829974,
    "longitude": -118.44035172162519
  },
  {
    "name": "colmelati hand crafted ice cream",
    "type": "ice cream",
    "rating": 4,
    "price": 1,
    "address": "6356 vineland vae",
    "zipCode": 91606,
    "note": "ice cream is not as sweet as other spots. esquite with chapolenes wasnt bad but needed more lime, garlic, flavor. the grasshoppers in it were good though",
    "latitude": 34.186495004609505,
    "longitude": -118.36997669278745
  },
  {
    "name": "101 noodle express",
    "type": "chinese",
    "rating": 4,
    "price": 1,
    "address": "1408 e valley blvd",
    "zipCode": 91801,
    "note": "beef noodle soup, scallion pancakes, pig ears were good",
    "latitude": 34.079135891030596,
    "longitude": -118.10941826114194
  },
  {
    "name": "sweethoney dessert",
    "type": "dessert",
    "rating": 3,
    "price": 2,
    "address": "410 w main st #100",
    "zipCode": 91801,
    "note": "puddings were good",
    "latitude": 34.09305770111928,
    "longitude": -118.13143094862872
  },
  {
    "name": "laces bar",
    "type": "sports bar",
    "rating": 4,
    "price": 2,
    "address": "125 n western ave #108",
    "zipCode": 90004,
    "note": "happy hour m-f 5-7pm. 2nd floor opens up after 5. solid food",
    "latitude": 34.07421571438708,
    "longitude": -118.30971013514146
  },
  {
    "name": "33 taps silver lake",
    "type": "sports bar",
    "rating": 4,
    "price": 2,
    "address": "3725 sunset blvd",
    "zipCode": 90026,
    "note": "happy hour m-f 3-7pm. great food and trivia night on wednesdays",
    "latitude": 34.091142415590205,
    "longitude": -118.27833909466258
  },
  {
    "name": "awan",
    "type": "ice cream",
    "rating": 4,
    "price": 1,
    "address": "866 huntley dr",
    "zipCode": 90069,
    "note": "great ice cream flavors. its in corner between 2 buildings and hard to see via car",
    "latitude": 34.08706041371612,
    "longitude": -118.38046389095797
  },
  {
    "name": "salju dessert",
    "type": "dessert",
    "rating": 4,
    "price": 1,
    "address": "35 valley blvd suite b",
    "zipCode": 91801,
    "note": "solid shaved ice, shaved ice like blockees near ucla",
    "latitude": 34.078964953607,
    "longitude": -118.12420417746816
  },
  {
    "name": "levain bakery",
    "type": "bakery",
    "rating": 4,
    "price": 2,
    "address": "340 lafayette st",
    "zipCode": 10012,
    "note": "fantastic cookies",
    "latitude": 40.72637054999053,
    "longitude": -73.99459215858339
  },
  {
    "name": "scarrs pizza",
    "type": "pizza",
    "rating": 4,
    "price": 1,
    "address": "22 orchard st",
    "zipCode": 10002,
    "note": "had 1 pepp slice, was super thin, crispy with a nice crunchy crust, really good",
    "latitude": 40.71550766995533,
    "longitude": -73.99150657763654
  },
  {
    "name": "xian famous foods",
    "type": "chinese",
    "rating": 4,
    "price": 1,
    "address": "45 bayard st",
    "zipCode": 10013,
    "note": "had the number 2, spicy and tingly beef noodles, regular spice, get spicier next time, noods were nice and chewy and sauce had alot of flavor, nice contrast with bitterness of celery",
    "latitude": 40.71522034245685,
    "longitude": -73.99735274694763
  },
  {
    "name": "katzs delicatessen",
    "type": "deli",
    "rating": 4,
    "price": 2,
    "address": "205 e houston st",
    "zipCode": 10002,
    "note": "fantastic pastrami sandwich",
    "latitude": 40.722460570375475,
    "longitude": -73.98751484879854
  },
  {
    "name": "quan vy da restaurant",
    "type": "vietnamese",
    "rating": 4,
    "price": 1,
    "address": "9950 bolsa ave b",
    "zipCode": 92683,
    "note": "bun rieu oc was a comforting tomato soup with snails. need to try bun bo hue next time",
    "latitude": 33.74434709425818,
    "longitude": -117.95516746034887
  },
  {
    "name": "golden boy pizza",
    "type": "pizza",
    "rating": 4,
    "price": 1,
    "address": "542 green st",
    "zipCode": 94133,
    "note": "solid detroit pizza. the clam pizza was good",
    "latitude": 37.799881084223735,
    "longitude": -122.40802834586607
  },
  {
    "name": "sotto mare",
    "type": "seafood",
    "rating": 4,
    "price": 2,
    "address": "552 green st",
    "zipCode": 94133,
    "note": "italian seafood. a bit neuks and rich but good. seafoood and pasta were pretty good",
    "latitude": 37.7998943166143,
    "longitude": -122.40828054586612
  },
  {
    "name": "kossars bagels and bialys",
    "type": "bagel",
    "rating": 4,
    "price": 1,
    "address": "367 grand st",
    "zipCode": 10002,
    "note": "everything bagel with cream cheese was the bomb",
    "latitude": 40.7165774672106,
    "longitude": -73.98872581625831
  },
  {
    "name": "raffis place",
    "type": "mediterranean",
    "rating": 4,
    "price": 2,
    "address": "211 e broadway",
    "zipCode": 91205,
    "note": "solid food, no reservations, family style mediterranean",
    "latitude": 34.146697871426014,
    "longitude": -118.25336608909123
  },
  {
    "name": "pelicana chicken los angeles",
    "type": "korean",
    "rating": 4,
    "price": 2,
    "address": "621 s western ave #116",
    "zipCode": 90005,
    "note": "pretty juicy korean chicken. garlic is too sweet but others were good",
    "latitude": 34.063248951710314,
    "longitude": -118.30976836212723
  },
  {
    "name": "heung rae gak",
    "type": "chinese",
    "rating": 3,
    "price": 2,
    "address": "357 s western ave #102",
    "zipCode": 90020,
    "note": "korean chinese, solid jjajang and tang soo yook",
    "latitude": 34.06768765468668,
    "longitude": -118.30965207747083
  },
  {
    "name": "hawkins house of burgers",
    "type": "hamburger",
    "rating": 4,
    "price": 1,
    "address": "11603 slater st",
    "zipCode": 90059,
    "note": "classic burgers, double cheesburger is huge. burgers are good but a bit salty",
    "latitude": 33.92946895205865,
    "longitude": -118.25229584866706
  },
  {
    "name": "mariscos jalisco",
    "type": "mexican",
    "rating": 4,
    "price": 1,
    "address": "3040 e olympic blvd",
    "zipCode": 90023,
    "note": "shrimp tacos, poseidon",
    "latitude": 34.02122784028276,
    "longitude": -118.21280879998838
  },
  {
    "name": "point-point joint",
    "type": "filipino",
    "rating": 4,
    "price": 1,
    "address": "4627 santa monica blvd",
    "zipCode": 90029,
    "note": "cafeteria style filipino food, very homely food",
    "latitude": 34.09120991993635,
    "longitude": -118.29048116582648
  },
  {
    "name": "scoops chinatown",
    "type": "ice cream",
    "rating": 4,
    "price": 1,
    "address": "727 n broadway #125",
    "zipCode": 90012,
    "note": "",
    "latitude": 34.061558143613745,
    "longitude": -118.23938876212775
  },
  {
    "name": "mesa thai cuisine",
    "type": "thai",
    "rating": 4,
    "price": 2,
    "address": "820 n western ave #101",
    "zipCode": 90029,
    "note": "boat noodles sat sunday, crying tiger, basil stir fry, sausage was good too",
    "latitude": 34.0853500314036,
    "longitude": -118.30900807746664
  },
  {
    "name": "original tommys world famous hamburgers",
    "type": "hamburgers",
    "rating": 4,
    "price": 1,
    "address": "5873 hollywood blvd",
    "zipCode": 90028,
    "note": "chili cheese fries",
    "latitude": 34.10213889812403,
    "longitude": -118.31785146582385
  },
  {
    "name": "milk jar cookies",
    "type": "cookies",
    "rating": 4,
    "price": 2,
    "address": "5466 wilshire blvd",
    "zipCode": 90036,
    "note": "salted butterscotch and the walnut cookies were good. raspberry choc and reg choc cookies were both a lil too sweet",
    "latitude": 34.06231970615309,
    "longitude": -118.34775916212749
  },
  {
    "name": "bagan burmese kitchen",
    "type": "burmese",
    "rating": 4,
    "price": 1,
    "address": "240 n virgil ave a",
    "zipCode": 90004,
    "note": "tea leaf salald, crispy beef, and nangyi noodles were all good. nangyi was like creamier non spicy dan dan noodles",
    "latitude": 34.07093049882314,
    "longitude": -118.29121950630618
  },
  {
    "name": "troy drive-in 6",
    "type": "fast food",
    "rating": 4,
    "price": 1,
    "address": "520 s glendale ave",
    "zipCode": 91205,
    "note": "good breakfast burritos",
    "latitude": 34.14020448194246,
    "longitude": -118.25020261978146
  },
  {
    "name": "country style jamaican restaurant",
    "type": "jamaican",
    "rating": 4,
    "price": 1,
    "address": "630 n la brea ave suite 11",
    "zipCode": 90302,
    "note": "ginger drink, goat curry, oxtail were all good",
    "latitude": 33.97160905583532,
    "longitude": -118.3566740621488
  },
  {
    "name": "bagnet tea house",
    "type": "filipino",
    "rating": 3,
    "price": 1,
    "address": "186 s vermont ave",
    "zipCode": 90004,
    "note": "pork, fish, cantalope juice were all good",
    "latitude": 34.07101048335161,
    "longitude": -118.29119804863393
  },
  {
    "name": "banh mi my tho",
    "type": "vietnamese",
    "rating": 4,
    "price": 1,
    "address": "304 w valley blvd",
    "zipCode": 91801,
    "note": "solid banh mi",
    "latitude": 34.078230069449816,
    "longitude": -118.12574834677935
  },
  {
    "name": "nha trang restaurant",
    "type": "vietnamese",
    "rating": 4,
    "price": 1,
    "address": "742 e garvey ave",
    "zipCode": 91755,
    "note": "bun bo hue",
    "latitude": 34.06256985320702,
    "longitude": -118.11194843329136
  },
  {
    "name": "la michoacana superior",
    "type": "ice cream",
    "rating": 4,
    "price": 1,
    "address": "1323 huntington dr",
    "zipCode": 91010,
    "note": "good paletas",
    "latitude": 34.14065474133407,
    "longitude": -117.97691996210914
  },
  {
    "name": "the varnish",
    "type": "bar",
    "rating": 4,
    "price": 2,
    "address": "118 e 6th st",
    "zipCode": 90014,
    "note": "craft cocktails",
    "latitude": 34.04499417176094,
    "longitude": -118.24946570445942
  },
  {
    "name": "mignon",
    "type": "bar",
    "rating": 4,
    "price": 2,
    "address": "128 e 6th st",
    "zipCode": 90014,
    "note": "wine bar with tapas",
    "latitude": 34.04474525436611,
    "longitude": -118.24931550075378
  },
  {
    "name": "tacos 1986",
    "type": "mexican",
    "rating": 4,
    "price": 1,
    "address": "7235 beverly blvd",
    "zipCode": 90036,
    "note": "their corn tortillas and mushroom tacos were good. wasnt a fan of the vamprios",
    "latitude": 34.07647111630195,
    "longitude": -118.34715063143534
  },
  {
    "name": "magpies softserve",
    "type": "ice cream",
    "rating": 4,
    "price": 1,
    "address": "2660 griffith park blvd",
    "zipCode": 90039,
    "note": "",
    "latitude": 34.10696322124299,
    "longitude": -118.27180991793648
  },
  {
    "name": "el super taco",
    "type": "mexican",
    "rating": 4,
    "price": 1,
    "address": "5010 rosemead blvd",
    "zipCode": 90660,
    "note": "",
    "latitude": 34.00079073474405,
    "longitude": -118.0835400505033
  },
  {
    "name": "holy roly ice cream",
    "type": "ice cream",
    "rating": 4,
    "price": 2,
    "address": "7266 melrose ave",
    "zipCode": 90046,
    "note": "",
    "latitude": 34.08351479290907,
    "longitude": -118.34806783328654
  },
  {
    "name": "tokki",
    "type": "korean",
    "rating": 4,
    "price": 2,
    "address": "3465 w 6th st suite 90-100",
    "zipCode": 90020,
    "note": "",
    "latitude": 34.06416733758973,
    "longitude": -118.29684193514386
  },
  {
    "name": "gol tong chicken",
    "type": "chicken",
    "rating": 4,
    "price": 1,
    "address": "361 western ave #101",
    "zipCode": 90020,
    "note": "good korean fried chicken",
    "latitude": 34.067551992041956,
    "longitude": -118.30947954492909
  },
  {
    "name": "chili johns of ca",
    "type": "diner",
    "rating": 4,
    "price": 1,
    "address": "2018 w burbank blvd",
    "zipCode": 91506,
    "note": "chili",
    "latitude": 34.180168642212735,
    "longitude": -118.33367180442775
  },
  {
    "name": "spoon and fork",
    "type": "filipino",
    "rating": 4,
    "price": 2,
    "address": "3131 sunset blvd",
    "zipCode": 90026,
    "note": "sisig and lechon were good",
    "latitude": 34.08558677378025,
    "longitude": -118.27450194677769
  },
  {
    "name": "yangban",
    "type": "korean",
    "rating": 4,
    "price": 2,
    "address": "712 s santa fe blvd",
    "zipCode": 90021,
    "note": "",
    "latitude": 34.034110169595024,
    "longitude": -118.22979296398704
  },
  {
    "name": "meat love korean bbq",
    "type": "korean",
    "rating": 4,
    "price": 2,
    "address": "1145 s western blvd",
    "zipCode": 90006,
    "note": "solid all you can eat korean bbq",
    "latitude": 34.04995214919499,
    "longitude": -118.30939349096663
  },
  {
    "name": "hae jang chon korean bbq restaurant",
    "type": "korean",
    "rating": 4,
    "price": 2,
    "address": "3821 w 6th street",
    "zipCode": 90020,
    "note": "korean bbq",
    "latitude": 34.063846597140575,
    "longitude": -118.30606776364966
  },
  {
    "name": "yangmani",
    "type": "korean",
    "rating": 4,
    "price": 2,
    "address": "2561 w olympic blvd",
    "zipCode": 90006,
    "note": "gopchang",
    "latitude": 34.05275504025226,
    "longitude": -118.28679433514644
  },
  {
    "name": "tips house - cuisine of thailand",
    "type": "thai",
    "rating": 4,
    "price": 1,
    "address": "3970 w 6th st",
    "zipCode": 90020,
    "note": "solid thai food, cash only",
    "latitude": 34.06360223060127,
    "longitude": -118.30992964863565
  },
  {
    "name": "northern thai food club",
    "type": "thai",
    "rating": 4,
    "price": 1,
    "address": "5301 sunset blvd #11",
    "zipCode": 90027,
    "note": "",
    "latitude": 34.098443989804075,
    "longitude": -118.30616697746358
  },
  {
    "name": "pa ord noodle",
    "type": "thai",
    "rating": 4,
    "price": 1,
    "address": "5301 sunset blvd #8",
    "zipCode": 90027,
    "note": "",
    "latitude": 34.09871576786032,
    "longitude": -118.30617637746346
  },
  {
    "name": "sapp coffee house",
    "type": "thai",
    "rating": 4,
    "price": 1,
    "address": "5183 hollywood blvd",
    "zipCode": 90027,
    "note": "cash only, boat noodle soup with extra tendon",
    "latitude": 34.10228794953371,
    "longitude": -118.30320221979059
  },
  {
    "name": "lalibela",
    "type": "ethiopian",
    "rating": 4,
    "price": 2,
    "address": "1025 s fairfax ave",
    "zipCode": 90019,
    "note": "",
    "latitude": 34.0574276697125,
    "longitude": -118.36440596027582
  },
  {
    "name": "dinos famous chicken",
    "type": "chicken",
    "rating": 4,
    "price": 1,
    "address": "2575 w pico blvd",
    "zipCode": 90006,
    "note": "",
    "latitude": 34.04766125496238,
    "longitude": -118.29397383514763
  },
  {
    "name": "papa cristos greek grill",
    "type": "greek",
    "rating": 4,
    "price": 2,
    "address": "2771 w pico blvd",
    "zipCode": 90006,
    "note": "",
    "latitude": 34.04754809666074,
    "longitude": -118.29965021980324
  },
  {
    "name": "maury's",
    "type": "bagel",
    "rating": 4,
    "price": 1,
    "address": "2828 bellevue ave",
    "zipCode": 90026,
    "note": "bagel and lox",
    "latitude": 34.0771231345845,
    "longitude": -118.27564360630466
  },
  {
    "name": "langers delicatessen restaurant",
    "type": "deli",
    "rating": 4,
    "price": 2,
    "address": "704 s alvarado st",
    "zipCode": 90057,
    "note": "pastrami, deli plate, need to try the potato pancakes (latkes)",
    "latitude": 34.05639153298142,
    "longitude": -118.2767349467844
  },
  {
    "name": "borneo eatery",
    "type": "south east asian",
    "rating": 4,
    "price": 1,
    "address": "19 s garfield",
    "zipCode": 91801,
    "note": "enjoyed the soups like the laksa. noodles were good too. indonesian and singaporean food",
    "latitude": 34.09480228934518,
    "longitude": -118.12674901979231
  },
  {
    "name": "kobawoo house",
    "type": "korean",
    "rating": 4,
    "price": 2,
    "address": "698 s vermont ave #109",
    "zipCode": 90005,
    "note": "bossam",
    "latitude": 34.06033002306353,
    "longitude": -118.291116781178
  },
  {
    "name": "isaan sttation thai street food",
    "type": "thai",
    "rating": 4,
    "price": 1,
    "address": "125 n western ave unit 111",
    "zipCode": 90004,
    "note": "raw crab was good",
    "latitude": 34.07428346686678,
    "longitude": -118.3094227621247
  },
  {
    "name": "mian",
    "type": "chinese",
    "rating": 4,
    "price": 1,
    "address": "301 w valley blvd #114-115",
    "zipCode": 91776,
    "note": "sichuan noodles",
    "latitude": 34.0803030554904,
    "longitude": -118.10437330630396
  },
  {
    "name": "paiks noodle - hong kong banjum",
    "type": "korean",
    "rating": 4,
    "price": 1,
    "address": "3470 w 6th st #11",
    "zipCode": 90020,
    "note": "korean chinese, good jjajang and tang soo yook",
    "latitude": 34.063043676122916,
    "longitude": -118.29774396212741
  },
  {
    "name": "sweet lady jane",
    "type": "bakery",
    "rating": 4,
    "price": 2,
    "address": "8360 melrose ave",
    "zipCode": 90069,
    "note": "berry cake",
    "latitude": 34.08365324915797,
    "longitude": -118.37271219095868
  },
  {
    "name": "lamill coffee - silverlake",
    "type": "coffee",
    "rating": 4,
    "price": 2,
    "address": "1636 silver lake blvd",
    "zipCode": 90026,
    "note": "",
    "latitude": 34.08916026424769,
    "longitude": -118.26866796732797
  },
  {
    "name": "indias tandoori",
    "type": "indian",
    "rating": 4,
    "price": 2,
    "address": "5468 wilshire blvd",
    "zipCode": 90036,
    "note": "all you can eat lunch",
    "latitude": 34.062314506166636,
    "longitude": -118.3479332774721
  }
]